[
  {
    "id": "SUB_101",
    "name": "Van Cortlandt Park-242 St",
    "lat": 40.889248,
    "lon": -73.898583
  },
  {
    "id": "SUB_103",
    "name": "238 St",
    "lat": 40.884667,
    "lon": -73.90087
  },
  {
    "id": "SUB_104",
    "name": "231 St",
    "lat": 40.878856,
    "lon": -73.904834
  },
  {
    "id": "SUB_106",
    "name": "Marble Hill-225 St",
    "lat": 40.874561,
    "lon": -73.909831
  },
  {
    "id": "SUB_107",
    "name": "215 St",
    "lat": 40.869444,
    "lon": -73.915279
  },
  {
    "id": "SUB_108",
    "name": "207 St",
    "lat": 40.864621,
    "lon": -73.918822
  },
  {
    "id": "SUB_109",
    "name": "Dyckman St",
    "lat": 40.860531,
    "lon": -73.925536
  },
  {
    "id": "SUB_110",
    "name": "191 St",
    "lat": 40.855225,
    "lon": -73.929412
  },
  {
    "id": "SUB_111",
    "name": "181 St",
    "lat": 40.849505,
    "lon": -73.933596
  },
  {
    "id": "SUB_112",
    "name": "168 St-Washington Hts",
    "lat": 40.840556,
    "lon": -73.940133
  },
  {
    "id": "SUB_113",
    "name": "157 St",
    "lat": 40.834041,
    "lon": -73.94489
  },
  {
    "id": "SUB_114",
    "name": "145 St",
    "lat": 40.826551,
    "lon": -73.95036
  },
  {
    "id": "SUB_115",
    "name": "137 St-City College",
    "lat": 40.822008,
    "lon": -73.953676
  },
  {
    "id": "SUB_116",
    "name": "125 St",
    "lat": 40.815581,
    "lon": -73.958372
  },
  {
    "id": "SUB_117",
    "name": "116 St-Columbia University",
    "lat": 40.807722,
    "lon": -73.96411
  },
  {
    "id": "SUB_118",
    "name": "Cathedral Pkwy (110 St)",
    "lat": 40.803967,
    "lon": -73.966847
  },
  {
    "id": "SUB_119",
    "name": "103 St",
    "lat": 40.799446,
    "lon": -73.968379
  },
  {
    "id": "SUB_120",
    "name": "96 St",
    "lat": 40.793919,
    "lon": -73.972323
  },
  {
    "id": "SUB_121",
    "name": "86 St",
    "lat": 40.788644,
    "lon": -73.976218
  },
  {
    "id": "SUB_122",
    "name": "79 St",
    "lat": 40.783934,
    "lon": -73.979917
  },
  {
    "id": "SUB_123",
    "name": "72 St",
    "lat": 40.778453,
    "lon": -73.98197
  },
  {
    "id": "SUB_124",
    "name": "66 St-Lincoln Center",
    "lat": 40.77344,
    "lon": -73.982209
  },
  {
    "id": "SUB_125",
    "name": "59 St-Columbus Circle",
    "lat": 40.768247,
    "lon": -73.981929
  },
  {
    "id": "SUB_126",
    "name": "50 St",
    "lat": 40.761728,
    "lon": -73.983849
  },
  {
    "id": "SUB_127",
    "name": "Times Sq-42 St",
    "lat": 40.75529,
    "lon": -73.987495
  },
  {
    "id": "SUB_128",
    "name": "34 St-Penn Station",
    "lat": 40.750373,
    "lon": -73.991057
  },
  {
    "id": "SUB_129",
    "name": "28 St",
    "lat": 40.747215,
    "lon": -73.993365
  },
  {
    "id": "SUB_130",
    "name": "23 St",
    "lat": 40.744081,
    "lon": -73.995657
  },
  {
    "id": "SUB_131",
    "name": "18 St",
    "lat": 40.74104,
    "lon": -73.997871
  },
  {
    "id": "SUB_132",
    "name": "14 St",
    "lat": 40.737826,
    "lon": -74.000201
  },
  {
    "id": "SUB_133",
    "name": "Christopher St-Stonewall",
    "lat": 40.733422,
    "lon": -74.002906
  },
  {
    "id": "SUB_134",
    "name": "Houston St",
    "lat": 40.728251,
    "lon": -74.005367
  },
  {
    "id": "SUB_135",
    "name": "Canal St",
    "lat": 40.722854,
    "lon": -74.006277
  },
  {
    "id": "SUB_136",
    "name": "Franklin St",
    "lat": 40.719318,
    "lon": -74.006886
  },
  {
    "id": "SUB_137",
    "name": "Chambers St",
    "lat": 40.715478,
    "lon": -74.009266
  },
  {
    "id": "SUB_138",
    "name": "WTC Cortlandt",
    "lat": 40.711835,
    "lon": -74.012188
  },
  {
    "id": "SUB_139",
    "name": "Rector St",
    "lat": 40.707513,
    "lon": -74.013783
  },
  {
    "id": "SUB_142",
    "name": "South Ferry",
    "lat": 40.702068,
    "lon": -74.013664
  },
  {
    "id": "SUB_201",
    "name": "Wakefield-241 St",
    "lat": 40.903125,
    "lon": -73.85062
  },
  {
    "id": "SUB_204",
    "name": "Nereid Av",
    "lat": 40.898379,
    "lon": -73.854376
  },
  {
    "id": "SUB_205",
    "name": "233 St",
    "lat": 40.893193,
    "lon": -73.857473
  },
  {
    "id": "SUB_206",
    "name": "225 St",
    "lat": 40.888022,
    "lon": -73.860341
  },
  {
    "id": "SUB_207",
    "name": "219 St",
    "lat": 40.883895,
    "lon": -73.862633
  },
  {
    "id": "SUB_208",
    "name": "Gun Hill Rd",
    "lat": 40.87785,
    "lon": -73.866256
  },
  {
    "id": "SUB_209",
    "name": "Burke Av",
    "lat": 40.871356,
    "lon": -73.867164
  },
  {
    "id": "SUB_210",
    "name": "Allerton Av",
    "lat": 40.865462,
    "lon": -73.867352
  },
  {
    "id": "SUB_211",
    "name": "Pelham Pkwy",
    "lat": 40.857192,
    "lon": -73.867615
  },
  {
    "id": "SUB_212",
    "name": "Bronx Park East",
    "lat": 40.848828,
    "lon": -73.868457
  },
  {
    "id": "SUB_213",
    "name": "E 180 St",
    "lat": 40.841894,
    "lon": -73.873488
  },
  {
    "id": "SUB_214",
    "name": "West Farms Sq-E Tremont Av",
    "lat": 40.840295,
    "lon": -73.880049
  },
  {
    "id": "SUB_215",
    "name": "174 St",
    "lat": 40.837288,
    "lon": -73.887734
  },
  {
    "id": "SUB_216",
    "name": "Freeman St",
    "lat": 40.829993,
    "lon": -73.891865
  },
  {
    "id": "SUB_217",
    "name": "Simpson St",
    "lat": 40.824073,
    "lon": -73.893064
  },
  {
    "id": "SUB_218",
    "name": "Intervale Av",
    "lat": 40.822181,
    "lon": -73.896736
  },
  {
    "id": "SUB_219",
    "name": "Prospect Av",
    "lat": 40.819585,
    "lon": -73.90177
  },
  {
    "id": "SUB_220",
    "name": "Jackson Av",
    "lat": 40.81649,
    "lon": -73.907807
  },
  {
    "id": "SUB_221",
    "name": "3 Av-149 St",
    "lat": 40.816109,
    "lon": -73.917757
  },
  {
    "id": "SUB_222",
    "name": "149 St-Grand Concourse",
    "lat": 40.81841,
    "lon": -73.926718
  },
  {
    "id": "SUB_224",
    "name": "135 St",
    "lat": 40.814229,
    "lon": -73.94077
  },
  {
    "id": "SUB_225",
    "name": "125 St",
    "lat": 40.807754,
    "lon": -73.945495
  },
  {
    "id": "SUB_226",
    "name": "116 St",
    "lat": 40.802098,
    "lon": -73.949625
  },
  {
    "id": "SUB_227",
    "name": "110 St-Malcolm X Plaza",
    "lat": 40.799075,
    "lon": -73.951822
  },
  {
    "id": "SUB_228",
    "name": "Park Place",
    "lat": 40.713051,
    "lon": -74.008811
  },
  {
    "id": "SUB_229",
    "name": "Fulton St",
    "lat": 40.709416,
    "lon": -74.006571
  },
  {
    "id": "SUB_230",
    "name": "Wall St",
    "lat": 40.706821,
    "lon": -74.0091
  },
  {
    "id": "SUB_231",
    "name": "Clark St",
    "lat": 40.697466,
    "lon": -73.993086
  },
  {
    "id": "SUB_232",
    "name": "Borough Hall",
    "lat": 40.693219,
    "lon": -73.989998
  },
  {
    "id": "SUB_233",
    "name": "Hoyt St",
    "lat": 40.690545,
    "lon": -73.985065
  },
  {
    "id": "SUB_234",
    "name": "Nevins St",
    "lat": 40.688246,
    "lon": -73.980492
  },
  {
    "id": "SUB_235",
    "name": "Atlantic Av-Barclays Ctr",
    "lat": 40.684359,
    "lon": -73.977666
  },
  {
    "id": "SUB_236",
    "name": "Bergen St",
    "lat": 40.680829,
    "lon": -73.975098
  },
  {
    "id": "SUB_237",
    "name": "Grand Army Plaza",
    "lat": 40.675235,
    "lon": -73.971046
  },
  {
    "id": "SUB_238",
    "name": "Eastern Pkwy-Brooklyn Museum",
    "lat": 40.671987,
    "lon": -73.964375
  },
  {
    "id": "SUB_239",
    "name": "Franklin Av-Medgar Evers College",
    "lat": 40.670682,
    "lon": -73.958131
  },
  {
    "id": "SUB_241",
    "name": "President St-Medgar Evers College",
    "lat": 40.667883,
    "lon": -73.950683
  },
  {
    "id": "SUB_242",
    "name": "Sterling St",
    "lat": 40.662742,
    "lon": -73.95085
  },
  {
    "id": "SUB_243",
    "name": "Winthrop St",
    "lat": 40.656652,
    "lon": -73.9502
  },
  {
    "id": "SUB_244",
    "name": "Church Av",
    "lat": 40.650843,
    "lon": -73.949575
  },
  {
    "id": "SUB_245",
    "name": "Beverly Rd",
    "lat": 40.645098,
    "lon": -73.948959
  },
  {
    "id": "SUB_246",
    "name": "Newkirk Av-Little Haiti",
    "lat": 40.639967,
    "lon": -73.948411
  },
  {
    "id": "SUB_247",
    "name": "Flatbush Av-Brooklyn College",
    "lat": 40.632836,
    "lon": -73.947642
  },
  {
    "id": "SUB_248",
    "name": "Nostrand Av",
    "lat": 40.669847,
    "lon": -73.950466
  },
  {
    "id": "SUB_249",
    "name": "Kingston Av",
    "lat": 40.669399,
    "lon": -73.942161
  },
  {
    "id": "SUB_250",
    "name": "Crown Hts-Utica Av",
    "lat": 40.668897,
    "lon": -73.932942
  },
  {
    "id": "SUB_251",
    "name": "Sutter Av-Rutland Rd",
    "lat": 40.664717,
    "lon": -73.92261
  },
  {
    "id": "SUB_252",
    "name": "Saratoga Av",
    "lat": 40.661453,
    "lon": -73.916327
  },
  {
    "id": "SUB_253",
    "name": "Rockaway Av",
    "lat": 40.662549,
    "lon": -73.908946
  },
  {
    "id": "SUB_254",
    "name": "Junius St",
    "lat": 40.663515,
    "lon": -73.902447
  },
  {
    "id": "SUB_255",
    "name": "Pennsylvania Av",
    "lat": 40.664635,
    "lon": -73.894895
  },
  {
    "id": "SUB_256",
    "name": "Van Siclen Av",
    "lat": 40.665449,
    "lon": -73.889395
  },
  {
    "id": "SUB_257",
    "name": "New Lots Av",
    "lat": 40.666235,
    "lon": -73.884079
  },
  {
    "id": "SUB_301",
    "name": "Harlem-148 St",
    "lat": 40.82388,
    "lon": -73.93647
  },
  {
    "id": "SUB_302",
    "name": "145 St",
    "lat": 40.820421,
    "lon": -73.936245
  },
  {
    "id": "SUB_401",
    "name": "Woodlawn",
    "lat": 40.886037,
    "lon": -73.878751
  },
  {
    "id": "SUB_402",
    "name": "Mosholu Pkwy",
    "lat": 40.87975,
    "lon": -73.884655
  },
  {
    "id": "SUB_405",
    "name": "Bedford Park Blvd-Lehman College",
    "lat": 40.873412,
    "lon": -73.890064
  },
  {
    "id": "SUB_406",
    "name": "Kingsbridge Rd",
    "lat": 40.86776,
    "lon": -73.897174
  },
  {
    "id": "SUB_407",
    "name": "Fordham Rd",
    "lat": 40.862803,
    "lon": -73.901034
  },
  {
    "id": "SUB_408",
    "name": "183 St",
    "lat": 40.858407,
    "lon": -73.903879
  },
  {
    "id": "SUB_409",
    "name": "Burnside Av",
    "lat": 40.853453,
    "lon": -73.907684
  },
  {
    "id": "SUB_410",
    "name": "176 St",
    "lat": 40.84848,
    "lon": -73.911794
  },
  {
    "id": "SUB_411",
    "name": "Mt Eden Av",
    "lat": 40.844434,
    "lon": -73.914685
  },
  {
    "id": "SUB_412",
    "name": "170 St",
    "lat": 40.840075,
    "lon": -73.917791
  },
  {
    "id": "SUB_413",
    "name": "167 St",
    "lat": 40.835537,
    "lon": -73.9214
  },
  {
    "id": "SUB_414",
    "name": "161 St-Yankee Stadium",
    "lat": 40.827994,
    "lon": -73.925831
  },
  {
    "id": "SUB_415",
    "name": "149 St-Grand Concourse",
    "lat": 40.818375,
    "lon": -73.927351
  },
  {
    "id": "SUB_416",
    "name": "138 St-Grand Concourse",
    "lat": 40.813224,
    "lon": -73.929849
  },
  {
    "id": "SUB_418",
    "name": "Fulton St",
    "lat": 40.710368,
    "lon": -74.009509
  },
  {
    "id": "SUB_419",
    "name": "Wall St",
    "lat": 40.707557,
    "lon": -74.011862
  },
  {
    "id": "SUB_420",
    "name": "Bowling Green",
    "lat": 40.704817,
    "lon": -74.014065
  },
  {
    "id": "SUB_423",
    "name": "Borough Hall",
    "lat": 40.692404,
    "lon": -73.990151
  },
  {
    "id": "SUB_501",
    "name": "Eastchester-Dyre Av",
    "lat": 40.8883,
    "lon": -73.830834
  },
  {
    "id": "SUB_502",
    "name": "Baychester Av",
    "lat": 40.878663,
    "lon": -73.838591
  },
  {
    "id": "SUB_503",
    "name": "Gun Hill Rd",
    "lat": 40.869526,
    "lon": -73.846384
  },
  {
    "id": "SUB_504",
    "name": "Pelham Pkwy",
    "lat": 40.858985,
    "lon": -73.855359
  },
  {
    "id": "SUB_505",
    "name": "Morris Park",
    "lat": 40.854364,
    "lon": -73.860495
  },
  {
    "id": "SUB_601",
    "name": "Pelham Bay Park",
    "lat": 40.852462,
    "lon": -73.828121
  },
  {
    "id": "SUB_602",
    "name": "Buhre Av",
    "lat": 40.84681,
    "lon": -73.832569
  },
  {
    "id": "SUB_603",
    "name": "Middletown Rd",
    "lat": 40.843863,
    "lon": -73.836322
  },
  {
    "id": "SUB_604",
    "name": "Westchester Sq-E Tremont Av",
    "lat": 40.839892,
    "lon": -73.842952
  },
  {
    "id": "SUB_606",
    "name": "Zerega Av",
    "lat": 40.836488,
    "lon": -73.847036
  },
  {
    "id": "SUB_607",
    "name": "Castle Hill Av",
    "lat": 40.834255,
    "lon": -73.851222
  },
  {
    "id": "SUB_608",
    "name": "Parkchester",
    "lat": 40.833226,
    "lon": -73.860816
  },
  {
    "id": "SUB_609",
    "name": "St Lawrence Av",
    "lat": 40.831509,
    "lon": -73.867618
  },
  {
    "id": "SUB_610",
    "name": "Morrison Av-Soundview",
    "lat": 40.829521,
    "lon": -73.874516
  },
  {
    "id": "SUB_611",
    "name": "Elder Av",
    "lat": 40.828584,
    "lon": -73.879159
  },
  {
    "id": "SUB_612",
    "name": "Whitlock Av",
    "lat": 40.826525,
    "lon": -73.886283
  },
  {
    "id": "SUB_613",
    "name": "Hunts Point Av",
    "lat": 40.820948,
    "lon": -73.890549
  },
  {
    "id": "SUB_614",
    "name": "Longwood Av",
    "lat": 40.816104,
    "lon": -73.896435
  },
  {
    "id": "SUB_615",
    "name": "E 149 St",
    "lat": 40.812118,
    "lon": -73.904098
  },
  {
    "id": "SUB_616",
    "name": "E 143 St-St Mary's St",
    "lat": 40.808719,
    "lon": -73.907657
  },
  {
    "id": "SUB_617",
    "name": "Cypress Av",
    "lat": 40.805368,
    "lon": -73.914042
  },
  {
    "id": "SUB_618",
    "name": "Brook Av",
    "lat": 40.807566,
    "lon": -73.91924
  },
  {
    "id": "SUB_619",
    "name": "3 Av-138 St",
    "lat": 40.810476,
    "lon": -73.926138
  },
  {
    "id": "SUB_621",
    "name": "125 St",
    "lat": 40.804138,
    "lon": -73.937594
  },
  {
    "id": "SUB_622",
    "name": "116 St",
    "lat": 40.798629,
    "lon": -73.941617
  },
  {
    "id": "SUB_623",
    "name": "110 St",
    "lat": 40.79502,
    "lon": -73.94425
  },
  {
    "id": "SUB_624",
    "name": "103 St",
    "lat": 40.7906,
    "lon": -73.947478
  },
  {
    "id": "SUB_625",
    "name": "96 St",
    "lat": 40.785672,
    "lon": -73.95107
  },
  {
    "id": "SUB_626",
    "name": "86 St",
    "lat": 40.779492,
    "lon": -73.955589
  },
  {
    "id": "SUB_627",
    "name": "77 St",
    "lat": 40.77362,
    "lon": -73.959874
  },
  {
    "id": "SUB_628",
    "name": "68 St-Hunter College",
    "lat": 40.768141,
    "lon": -73.96387
  },
  {
    "id": "SUB_629",
    "name": "59 St",
    "lat": 40.762526,
    "lon": -73.967967
  },
  {
    "id": "SUB_630",
    "name": "51 St",
    "lat": 40.757107,
    "lon": -73.97192
  },
  {
    "id": "SUB_631",
    "name": "Grand Central-42 St",
    "lat": 40.751776,
    "lon": -73.976848
  },
  {
    "id": "SUB_632",
    "name": "33 St",
    "lat": 40.746081,
    "lon": -73.982076
  },
  {
    "id": "SUB_633",
    "name": "28 St",
    "lat": 40.74307,
    "lon": -73.984264
  },
  {
    "id": "SUB_634",
    "name": "23 St-Baruch College",
    "lat": 40.739864,
    "lon": -73.986599
  },
  {
    "id": "SUB_635",
    "name": "14 St-Union Sq",
    "lat": 40.734673,
    "lon": -73.989951
  },
  {
    "id": "SUB_636",
    "name": "Astor Pl",
    "lat": 40.730054,
    "lon": -73.99107
  },
  {
    "id": "SUB_637",
    "name": "Bleecker St",
    "lat": 40.725915,
    "lon": -73.994659
  },
  {
    "id": "SUB_638",
    "name": "Spring St",
    "lat": 40.722301,
    "lon": -73.997141
  },
  {
    "id": "SUB_639",
    "name": "Canal St",
    "lat": 40.718803,
    "lon": -74.000193
  },
  {
    "id": "SUB_640",
    "name": "Brooklyn Bridge-City Hall",
    "lat": 40.713065,
    "lon": -74.004131
  },
  {
    "id": "SUB_701",
    "name": "Flushing-Main St",
    "lat": 40.7596,
    "lon": -73.83003
  },
  {
    "id": "SUB_702",
    "name": "Mets-Willets Point",
    "lat": 40.754622,
    "lon": -73.845625
  },
  {
    "id": "SUB_705",
    "name": "111 St",
    "lat": 40.75173,
    "lon": -73.855334
  },
  {
    "id": "SUB_706",
    "name": "103 St-Corona Plaza",
    "lat": 40.749865,
    "lon": -73.8627
  },
  {
    "id": "SUB_707",
    "name": "Junction Blvd",
    "lat": 40.749145,
    "lon": -73.869527
  },
  {
    "id": "SUB_708",
    "name": "90 St-Elmhurst Av",
    "lat": 40.748408,
    "lon": -73.876613
  },
  {
    "id": "SUB_709",
    "name": "82 St-Jackson Hts",
    "lat": 40.747659,
    "lon": -73.883697
  },
  {
    "id": "SUB_710",
    "name": "74 St-Broadway",
    "lat": 40.746848,
    "lon": -73.891394
  },
  {
    "id": "SUB_711",
    "name": "69 St",
    "lat": 40.746325,
    "lon": -73.896403
  },
  {
    "id": "SUB_712",
    "name": "61 St-Woodside",
    "lat": 40.74563,
    "lon": -73.902984
  },
  {
    "id": "SUB_713",
    "name": "52 St",
    "lat": 40.744149,
    "lon": -73.912549
  },
  {
    "id": "SUB_714",
    "name": "46 St-Bliss St",
    "lat": 40.743132,
    "lon": -73.918435
  },
  {
    "id": "SUB_715",
    "name": "40 St-Lowery St",
    "lat": 40.743781,
    "lon": -73.924016
  },
  {
    "id": "SUB_716",
    "name": "33 St-Rawson St",
    "lat": 40.744587,
    "lon": -73.930997
  },
  {
    "id": "SUB_718",
    "name": "Queensboro Plaza",
    "lat": 40.750582,
    "lon": -73.940202
  },
  {
    "id": "SUB_719",
    "name": "Court Sq",
    "lat": 40.747023,
    "lon": -73.945264
  },
  {
    "id": "SUB_720",
    "name": "Hunters Point Av",
    "lat": 40.742216,
    "lon": -73.948916
  },
  {
    "id": "SUB_721",
    "name": "Vernon Blvd-Jackson Av",
    "lat": 40.742626,
    "lon": -73.953581
  },
  {
    "id": "SUB_723",
    "name": "Grand Central-42 St",
    "lat": 40.751431,
    "lon": -73.976041
  },
  {
    "id": "SUB_724",
    "name": "5 Av",
    "lat": 40.753821,
    "lon": -73.981963
  },
  {
    "id": "SUB_725",
    "name": "Times Sq-42 St",
    "lat": 40.755477,
    "lon": -73.987691
  },
  {
    "id": "SUB_726",
    "name": "34 St-Hudson Yards",
    "lat": 40.755882,
    "lon": -74.00191
  },
  {
    "id": "SUB_901",
    "name": "Grand Central-42 St",
    "lat": 40.752769,
    "lon": -73.979189
  },
  {
    "id": "SUB_902",
    "name": "Times Sq-42 St",
    "lat": 40.755983,
    "lon": -73.986229
  },
  {
    "id": "SUB_A02",
    "name": "Inwood-207 St",
    "lat": 40.868072,
    "lon": -73.919899
  },
  {
    "id": "SUB_A03",
    "name": "Dyckman St",
    "lat": 40.865491,
    "lon": -73.927271
  },
  {
    "id": "SUB_A05",
    "name": "190 St",
    "lat": 40.859022,
    "lon": -73.93418
  },
  {
    "id": "SUB_A06",
    "name": "181 St",
    "lat": 40.851695,
    "lon": -73.937969
  },
  {
    "id": "SUB_A07",
    "name": "175 St",
    "lat": 40.847391,
    "lon": -73.939704
  },
  {
    "id": "SUB_A09",
    "name": "168 St",
    "lat": 40.840719,
    "lon": -73.939561
  },
  {
    "id": "SUB_A10",
    "name": "163 St-Amsterdam Av",
    "lat": 40.836013,
    "lon": -73.939892
  },
  {
    "id": "SUB_A11",
    "name": "155 St",
    "lat": 40.830518,
    "lon": -73.941514
  },
  {
    "id": "SUB_A12",
    "name": "145 St",
    "lat": 40.824783,
    "lon": -73.944216
  },
  {
    "id": "SUB_A14",
    "name": "135 St",
    "lat": 40.817894,
    "lon": -73.947649
  },
  {
    "id": "SUB_A15",
    "name": "125 St",
    "lat": 40.811109,
    "lon": -73.952343
  },
  {
    "id": "SUB_A16",
    "name": "116 St",
    "lat": 40.805085,
    "lon": -73.954882
  },
  {
    "id": "SUB_A17",
    "name": "Cathedral Pkwy (110 St)",
    "lat": 40.800603,
    "lon": -73.958161
  },
  {
    "id": "SUB_A18",
    "name": "103 St",
    "lat": 40.796092,
    "lon": -73.961454
  },
  {
    "id": "SUB_A19",
    "name": "96 St",
    "lat": 40.791642,
    "lon": -73.964696
  },
  {
    "id": "SUB_A20",
    "name": "86 St",
    "lat": 40.785868,
    "lon": -73.968916
  },
  {
    "id": "SUB_A21",
    "name": "81 St-Museum of Natural History",
    "lat": 40.781433,
    "lon": -73.972143
  },
  {
    "id": "SUB_A22",
    "name": "72 St",
    "lat": 40.775594,
    "lon": -73.97641
  },
  {
    "id": "SUB_A24",
    "name": "59 St-Columbus Circle",
    "lat": 40.768296,
    "lon": -73.981736
  },
  {
    "id": "SUB_A25",
    "name": "50 St",
    "lat": 40.762456,
    "lon": -73.985984
  },
  {
    "id": "SUB_A27",
    "name": "42 St-Port Authority Bus Terminal",
    "lat": 40.757308,
    "lon": -73.989735
  },
  {
    "id": "SUB_A28",
    "name": "34 St-Penn Station",
    "lat": 40.752287,
    "lon": -73.993391
  },
  {
    "id": "SUB_A30",
    "name": "23 St",
    "lat": 40.745906,
    "lon": -73.998041
  },
  {
    "id": "SUB_A31",
    "name": "14 St",
    "lat": 40.740893,
    "lon": -74.00169
  },
  {
    "id": "SUB_A32",
    "name": "W 4 St-Wash Sq",
    "lat": 40.732338,
    "lon": -74.000495
  },
  {
    "id": "SUB_A33",
    "name": "Spring St",
    "lat": 40.726227,
    "lon": -74.003739
  },
  {
    "id": "SUB_A34",
    "name": "Canal St",
    "lat": 40.720824,
    "lon": -74.005229
  },
  {
    "id": "SUB_A36",
    "name": "Chambers St",
    "lat": 40.714111,
    "lon": -74.008585
  },
  {
    "id": "SUB_A38",
    "name": "Fulton St",
    "lat": 40.710197,
    "lon": -74.007691
  },
  {
    "id": "SUB_A40",
    "name": "High St",
    "lat": 40.699337,
    "lon": -73.990531
  },
  {
    "id": "SUB_A41",
    "name": "Jay St-MetroTech",
    "lat": 40.692338,
    "lon": -73.987342
  },
  {
    "id": "SUB_A42",
    "name": "Hoyt-Schermerhorn Sts",
    "lat": 40.688484,
    "lon": -73.985001
  },
  {
    "id": "SUB_A43",
    "name": "Lafayette Av",
    "lat": 40.686113,
    "lon": -73.973946
  },
  {
    "id": "SUB_A44",
    "name": "Clinton-Washington Avs",
    "lat": 40.683263,
    "lon": -73.965838
  },
  {
    "id": "SUB_A45",
    "name": "Franklin Av",
    "lat": 40.68138,
    "lon": -73.956848
  },
  {
    "id": "SUB_A46",
    "name": "Nostrand Av",
    "lat": 40.680438,
    "lon": -73.950426
  },
  {
    "id": "SUB_A47",
    "name": "Kingston-Throop Avs",
    "lat": 40.679921,
    "lon": -73.940858
  },
  {
    "id": "SUB_A48",
    "name": "Utica Av",
    "lat": 40.679364,
    "lon": -73.930729
  },
  {
    "id": "SUB_A49",
    "name": "Ralph Av",
    "lat": 40.678822,
    "lon": -73.920786
  },
  {
    "id": "SUB_A50",
    "name": "Rockaway Av",
    "lat": 40.67834,
    "lon": -73.911946
  },
  {
    "id": "SUB_A51",
    "name": "Broadway Junction",
    "lat": 40.678334,
    "lon": -73.905316
  },
  {
    "id": "SUB_A52",
    "name": "Liberty Av",
    "lat": 40.674542,
    "lon": -73.896548
  },
  {
    "id": "SUB_A53",
    "name": "Van Siclen Av",
    "lat": 40.67271,
    "lon": -73.890358
  },
  {
    "id": "SUB_A54",
    "name": "Shepherd Av",
    "lat": 40.67413,
    "lon": -73.88075
  },
  {
    "id": "SUB_A55",
    "name": "Euclid Av",
    "lat": 40.675377,
    "lon": -73.872106
  },
  {
    "id": "SUB_A57",
    "name": "Grant Av",
    "lat": 40.677044,
    "lon": -73.86505
  },
  {
    "id": "SUB_A59",
    "name": "80 St",
    "lat": 40.679371,
    "lon": -73.858992
  },
  {
    "id": "SUB_A60",
    "name": "88 St",
    "lat": 40.679843,
    "lon": -73.85147
  },
  {
    "id": "SUB_A61",
    "name": "Rockaway Blvd",
    "lat": 40.680429,
    "lon": -73.843853
  },
  {
    "id": "SUB_A63",
    "name": "104 St",
    "lat": 40.681711,
    "lon": -73.837683
  },
  {
    "id": "SUB_A64",
    "name": "111 St",
    "lat": 40.684331,
    "lon": -73.832163
  },
  {
    "id": "SUB_A65",
    "name": "Ozone Park-Lefferts Blvd",
    "lat": 40.685951,
    "lon": -73.825798
  },
  {
    "id": "SUB_B04",
    "name": "21 St-Queensbridge",
    "lat": 40.754203,
    "lon": -73.942836
  },
  {
    "id": "SUB_B06",
    "name": "Roosevelt Island",
    "lat": 40.759145,
    "lon": -73.95326
  },
  {
    "id": "SUB_B08",
    "name": "Lexington Av/63 St",
    "lat": 40.764629,
    "lon": -73.966113
  },
  {
    "id": "SUB_B10",
    "name": "57 St",
    "lat": 40.763972,
    "lon": -73.97745
  },
  {
    "id": "SUB_B12",
    "name": "9 Av",
    "lat": 40.646292,
    "lon": -73.994324
  },
  {
    "id": "SUB_B13",
    "name": "Fort Hamilton Pkwy",
    "lat": 40.640914,
    "lon": -73.994304
  },
  {
    "id": "SUB_B14",
    "name": "50 St",
    "lat": 40.63626,
    "lon": -73.994791
  },
  {
    "id": "SUB_B15",
    "name": "55 St",
    "lat": 40.631435,
    "lon": -73.995476
  },
  {
    "id": "SUB_B16",
    "name": "62 St",
    "lat": 40.626472,
    "lon": -73.996895
  },
  {
    "id": "SUB_B17",
    "name": "71 St",
    "lat": 40.619589,
    "lon": -73.998864
  },
  {
    "id": "SUB_B18",
    "name": "79 St",
    "lat": 40.613501,
    "lon": -74.00061
  },
  {
    "id": "SUB_B19",
    "name": "18 Av",
    "lat": 40.607954,
    "lon": -74.001736
  },
  {
    "id": "SUB_B20",
    "name": "20 Av",
    "lat": 40.604556,
    "lon": -73.998168
  },
  {
    "id": "SUB_B21",
    "name": "Bay Pkwy",
    "lat": 40.601875,
    "lon": -73.993728
  },
  {
    "id": "SUB_B22",
    "name": "25 Av",
    "lat": 40.597704,
    "lon": -73.986829
  },
  {
    "id": "SUB_B23",
    "name": "Bay 50 St",
    "lat": 40.588841,
    "lon": -73.983765
  },
  {
    "id": "SUB_D01",
    "name": "Norwood-205 St",
    "lat": 40.874811,
    "lon": -73.878855
  },
  {
    "id": "SUB_D03",
    "name": "Bedford Park Blvd",
    "lat": 40.873244,
    "lon": -73.887138
  },
  {
    "id": "SUB_D04",
    "name": "Kingsbridge Rd",
    "lat": 40.866978,
    "lon": -73.893509
  },
  {
    "id": "SUB_D05",
    "name": "Fordham Rd",
    "lat": 40.861296,
    "lon": -73.897749
  },
  {
    "id": "SUB_D06",
    "name": "182-183 Sts",
    "lat": 40.856093,
    "lon": -73.900741
  },
  {
    "id": "SUB_D07",
    "name": "Tremont Av",
    "lat": 40.85041,
    "lon": -73.905227
  },
  {
    "id": "SUB_D08",
    "name": "174-175 Sts",
    "lat": 40.8459,
    "lon": -73.910136
  },
  {
    "id": "SUB_D09",
    "name": "170 St",
    "lat": 40.839306,
    "lon": -73.9134
  },
  {
    "id": "SUB_D10",
    "name": "167 St",
    "lat": 40.833771,
    "lon": -73.91844
  },
  {
    "id": "SUB_D11",
    "name": "161 St-Yankee Stadium",
    "lat": 40.827905,
    "lon": -73.925651
  },
  {
    "id": "SUB_D12",
    "name": "155 St",
    "lat": 40.830135,
    "lon": -73.938209
  },
  {
    "id": "SUB_D14",
    "name": "7 Av",
    "lat": 40.762862,
    "lon": -73.981637
  },
  {
    "id": "SUB_D15",
    "name": "47-50 Sts-Rockefeller Ctr",
    "lat": 40.758663,
    "lon": -73.981329
  },
  {
    "id": "SUB_D16",
    "name": "42 St-Bryant Pk",
    "lat": 40.754222,
    "lon": -73.984569
  },
  {
    "id": "SUB_D17",
    "name": "34 St-Herald Sq",
    "lat": 40.749719,
    "lon": -73.987823
  },
  {
    "id": "SUB_D18",
    "name": "23 St",
    "lat": 40.742878,
    "lon": -73.992821
  },
  {
    "id": "SUB_D19",
    "name": "14 St",
    "lat": 40.738228,
    "lon": -73.996209
  },
  {
    "id": "SUB_D21",
    "name": "Broadway-Lafayette St",
    "lat": 40.725297,
    "lon": -73.996204
  },
  {
    "id": "SUB_D22",
    "name": "Grand St",
    "lat": 40.718267,
    "lon": -73.993753
  },
  {
    "id": "SUB_D24",
    "name": "Atlantic Av-Barclays Ctr",
    "lat": 40.68446,
    "lon": -73.97689
  },
  {
    "id": "SUB_D25",
    "name": "7 Av",
    "lat": 40.67705,
    "lon": -73.972367
  },
  {
    "id": "SUB_D26",
    "name": "Prospect Park",
    "lat": 40.661614,
    "lon": -73.962246
  },
  {
    "id": "SUB_D27",
    "name": "Parkside Av",
    "lat": 40.655292,
    "lon": -73.961495
  },
  {
    "id": "SUB_D28",
    "name": "Church Av",
    "lat": 40.650527,
    "lon": -73.962982
  },
  {
    "id": "SUB_D29",
    "name": "Beverley Rd",
    "lat": 40.644031,
    "lon": -73.964492
  },
  {
    "id": "SUB_D30",
    "name": "Cortelyou Rd",
    "lat": 40.640927,
    "lon": -73.963891
  },
  {
    "id": "SUB_D31",
    "name": "Newkirk Plaza",
    "lat": 40.635082,
    "lon": -73.962793
  },
  {
    "id": "SUB_D32",
    "name": "Avenue H",
    "lat": 40.62927,
    "lon": -73.961639
  },
  {
    "id": "SUB_D33",
    "name": "Avenue J",
    "lat": 40.625039,
    "lon": -73.960803
  },
  {
    "id": "SUB_D34",
    "name": "Avenue M",
    "lat": 40.617618,
    "lon": -73.959399
  },
  {
    "id": "SUB_D35",
    "name": "Kings Hwy",
    "lat": 40.60867,
    "lon": -73.957734
  },
  {
    "id": "SUB_D37",
    "name": "Avenue U",
    "lat": 40.5993,
    "lon": -73.955929
  },
  {
    "id": "SUB_D38",
    "name": "Neck Rd",
    "lat": 40.595246,
    "lon": -73.955161
  },
  {
    "id": "SUB_D39",
    "name": "Sheepshead Bay",
    "lat": 40.586896,
    "lon": -73.954155
  },
  {
    "id": "SUB_D40",
    "name": "Brighton Beach",
    "lat": 40.577621,
    "lon": -73.961376
  },
  {
    "id": "SUB_D41",
    "name": "Ocean Pkwy",
    "lat": 40.576312,
    "lon": -73.968501
  },
  {
    "id": "SUB_D42",
    "name": "W 8 St-NY Aquarium",
    "lat": 40.576127,
    "lon": -73.975939
  },
  {
    "id": "SUB_D43",
    "name": "Coney Island-Stillwell Av",
    "lat": 40.577422,
    "lon": -73.981233
  },
  {
    "id": "SUB_E01",
    "name": "World Trade Center",
    "lat": 40.712582,
    "lon": -74.009781
  },
  {
    "id": "SUB_F01",
    "name": "Jamaica-179 St",
    "lat": 40.712646,
    "lon": -73.783817
  },
  {
    "id": "SUB_F02",
    "name": "169 St",
    "lat": 40.71047,
    "lon": -73.793604
  },
  {
    "id": "SUB_F03",
    "name": "Parsons Blvd",
    "lat": 40.707564,
    "lon": -73.803326
  },
  {
    "id": "SUB_F04",
    "name": "Sutphin Blvd",
    "lat": 40.70546,
    "lon": -73.810708
  },
  {
    "id": "SUB_F05",
    "name": "Briarwood",
    "lat": 40.709179,
    "lon": -73.820574
  },
  {
    "id": "SUB_F06",
    "name": "Kew Gardens-Union Tpke",
    "lat": 40.714441,
    "lon": -73.831008
  },
  {
    "id": "SUB_F07",
    "name": "75 Av",
    "lat": 40.718331,
    "lon": -73.837324
  },
  {
    "id": "SUB_F09",
    "name": "Court Sq-23 St",
    "lat": 40.747846,
    "lon": -73.946
  },
  {
    "id": "SUB_F11",
    "name": "Lexington Av/53 St",
    "lat": 40.757552,
    "lon": -73.969055
  },
  {
    "id": "SUB_F12",
    "name": "5 Av/53 St",
    "lat": 40.760167,
    "lon": -73.975224
  },
  {
    "id": "SUB_F14",
    "name": "2 Av",
    "lat": 40.723402,
    "lon": -73.989938
  },
  {
    "id": "SUB_F15",
    "name": "Delancey St-Essex St",
    "lat": 40.718611,
    "lon": -73.988114
  },
  {
    "id": "SUB_F16",
    "name": "East Broadway",
    "lat": 40.713715,
    "lon": -73.990173
  },
  {
    "id": "SUB_F18",
    "name": "York St",
    "lat": 40.701397,
    "lon": -73.986751
  },
  {
    "id": "SUB_F20",
    "name": "Bergen St",
    "lat": 40.686145,
    "lon": -73.990862
  },
  {
    "id": "SUB_F21",
    "name": "Carroll St",
    "lat": 40.680303,
    "lon": -73.995048
  },
  {
    "id": "SUB_F22",
    "name": "Smith-9 Sts",
    "lat": 40.67358,
    "lon": -73.995959
  },
  {
    "id": "SUB_F23",
    "name": "4 Av-9 St",
    "lat": 40.670272,
    "lon": -73.989779
  },
  {
    "id": "SUB_F24",
    "name": "7 Av",
    "lat": 40.666271,
    "lon": -73.980305
  },
  {
    "id": "SUB_F25",
    "name": "15 St-Prospect Park",
    "lat": 40.660365,
    "lon": -73.979493
  },
  {
    "id": "SUB_F26",
    "name": "Fort Hamilton Pkwy",
    "lat": 40.650782,
    "lon": -73.975776
  },
  {
    "id": "SUB_F27",
    "name": "Church Av",
    "lat": 40.644041,
    "lon": -73.979678
  },
  {
    "id": "SUB_F29",
    "name": "Ditmas Av",
    "lat": 40.636119,
    "lon": -73.978172
  },
  {
    "id": "SUB_F30",
    "name": "18 Av",
    "lat": 40.629755,
    "lon": -73.976971
  },
  {
    "id": "SUB_F31",
    "name": "Avenue I",
    "lat": 40.625322,
    "lon": -73.976127
  },
  {
    "id": "SUB_F32",
    "name": "Bay Pkwy",
    "lat": 40.620769,
    "lon": -73.975264
  },
  {
    "id": "SUB_F33",
    "name": "Avenue N",
    "lat": 40.61514,
    "lon": -73.974197
  },
  {
    "id": "SUB_F34",
    "name": "Avenue P",
    "lat": 40.608944,
    "lon": -73.973022
  },
  {
    "id": "SUB_F35",
    "name": "Kings Hwy",
    "lat": 40.603217,
    "lon": -73.972361
  },
  {
    "id": "SUB_F36",
    "name": "Avenue U",
    "lat": 40.596063,
    "lon": -73.973357
  },
  {
    "id": "SUB_F38",
    "name": "Avenue X",
    "lat": 40.58962,
    "lon": -73.97425
  },
  {
    "id": "SUB_F39",
    "name": "Neptune Av",
    "lat": 40.581011,
    "lon": -73.974574
  },
  {
    "id": "SUB_G05",
    "name": "Jamaica Center-Parsons/Archer",
    "lat": 40.702147,
    "lon": -73.801109
  },
  {
    "id": "SUB_G06",
    "name": "Sutphin Blvd-Archer Av-JFK Airport",
    "lat": 40.700486,
    "lon": -73.807969
  },
  {
    "id": "SUB_G07",
    "name": "Jamaica-Van Wyck",
    "lat": 40.702566,
    "lon": -73.816859
  },
  {
    "id": "SUB_G08",
    "name": "Forest Hills-71 Av",
    "lat": 40.721691,
    "lon": -73.844521
  },
  {
    "id": "SUB_G09",
    "name": "67 Av",
    "lat": 40.726523,
    "lon": -73.852719
  },
  {
    "id": "SUB_G10",
    "name": "63 Dr-Rego Park",
    "lat": 40.729846,
    "lon": -73.861604
  },
  {
    "id": "SUB_G11",
    "name": "Woodhaven Blvd",
    "lat": 40.733106,
    "lon": -73.869229
  },
  {
    "id": "SUB_G12",
    "name": "Grand Av-Newtown",
    "lat": 40.737015,
    "lon": -73.877223
  },
  {
    "id": "SUB_G13",
    "name": "Elmhurst Av",
    "lat": 40.742454,
    "lon": -73.882017
  },
  {
    "id": "SUB_G14",
    "name": "Jackson Hts-Roosevelt Av",
    "lat": 40.746644,
    "lon": -73.891338
  },
  {
    "id": "SUB_G15",
    "name": "65 St",
    "lat": 40.749669,
    "lon": -73.898453
  },
  {
    "id": "SUB_G16",
    "name": "Northern Blvd",
    "lat": 40.752885,
    "lon": -73.906006
  },
  {
    "id": "SUB_G18",
    "name": "46 St",
    "lat": 40.756312,
    "lon": -73.913333
  },
  {
    "id": "SUB_G19",
    "name": "Steinway St",
    "lat": 40.756879,
    "lon": -73.92074
  },
  {
    "id": "SUB_G20",
    "name": "36 St",
    "lat": 40.752039,
    "lon": -73.928781
  },
  {
    "id": "SUB_G21",
    "name": "Queens Plaza",
    "lat": 40.748973,
    "lon": -73.937243
  },
  {
    "id": "SUB_G22",
    "name": "Court Sq",
    "lat": 40.746554,
    "lon": -73.943832
  },
  {
    "id": "SUB_G24",
    "name": "21 St",
    "lat": 40.744065,
    "lon": -73.949724
  },
  {
    "id": "SUB_G26",
    "name": "Greenpoint Av",
    "lat": 40.731352,
    "lon": -73.954449
  },
  {
    "id": "SUB_G28",
    "name": "Nassau Av",
    "lat": 40.724635,
    "lon": -73.951277
  },
  {
    "id": "SUB_G29",
    "name": "Metropolitan Av",
    "lat": 40.712792,
    "lon": -73.951418
  },
  {
    "id": "SUB_G30",
    "name": "Broadway",
    "lat": 40.706092,
    "lon": -73.950308
  },
  {
    "id": "SUB_G31",
    "name": "Flushing Av",
    "lat": 40.700377,
    "lon": -73.950234
  },
  {
    "id": "SUB_G32",
    "name": "Myrtle-Willoughby Avs",
    "lat": 40.694568,
    "lon": -73.949046
  },
  {
    "id": "SUB_G33",
    "name": "Bedford-Nostrand Avs",
    "lat": 40.689627,
    "lon": -73.953522
  },
  {
    "id": "SUB_G34",
    "name": "Classon Av",
    "lat": 40.688873,
    "lon": -73.96007
  },
  {
    "id": "SUB_G35",
    "name": "Clinton-Washington Avs",
    "lat": 40.688089,
    "lon": -73.966839
  },
  {
    "id": "SUB_G36",
    "name": "Fulton St",
    "lat": 40.687119,
    "lon": -73.975375
  },
  {
    "id": "SUB_H01",
    "name": "Aqueduct Racetrack",
    "lat": 40.672097,
    "lon": -73.835919
  },
  {
    "id": "SUB_H02",
    "name": "Aqueduct-N Conduit Av",
    "lat": 40.668234,
    "lon": -73.834058
  },
  {
    "id": "SUB_H03",
    "name": "Howard Beach-JFK Airport",
    "lat": 40.660476,
    "lon": -73.830301
  },
  {
    "id": "SUB_H04",
    "name": "Broad Channel",
    "lat": 40.608382,
    "lon": -73.815925
  },
  {
    "id": "SUB_H06",
    "name": "Beach 67 St",
    "lat": 40.590927,
    "lon": -73.796924
  },
  {
    "id": "SUB_H07",
    "name": "Beach 60 St",
    "lat": 40.592374,
    "lon": -73.788522
  },
  {
    "id": "SUB_H08",
    "name": "Beach 44 St",
    "lat": 40.592943,
    "lon": -73.776013
  },
  {
    "id": "SUB_H09",
    "name": "Beach 36 St",
    "lat": 40.595398,
    "lon": -73.768175
  },
  {
    "id": "SUB_H10",
    "name": "Beach 25 St",
    "lat": 40.600066,
    "lon": -73.761353
  },
  {
    "id": "SUB_H11",
    "name": "Far Rockaway-Mott Av",
    "lat": 40.603995,
    "lon": -73.755405
  },
  {
    "id": "SUB_H12",
    "name": "Beach 90 St",
    "lat": 40.588034,
    "lon": -73.813641
  },
  {
    "id": "SUB_H13",
    "name": "Beach 98 St",
    "lat": 40.585307,
    "lon": -73.820558
  },
  {
    "id": "SUB_H14",
    "name": "Beach 105 St",
    "lat": 40.583209,
    "lon": -73.827559
  },
  {
    "id": "SUB_H15",
    "name": "Rockaway Park-Beach 116 St",
    "lat": 40.580903,
    "lon": -73.835592
  },
  {
    "id": "SUB_J12",
    "name": "121 St",
    "lat": 40.700492,
    "lon": -73.828294
  },
  {
    "id": "SUB_J13",
    "name": "111 St",
    "lat": 40.697418,
    "lon": -73.836345
  },
  {
    "id": "SUB_J14",
    "name": "104 St",
    "lat": 40.695178,
    "lon": -73.84433
  },
  {
    "id": "SUB_J15",
    "name": "Woodhaven Blvd",
    "lat": 40.693879,
    "lon": -73.851576
  },
  {
    "id": "SUB_J16",
    "name": "85 St-Forest Pkwy",
    "lat": 40.692435,
    "lon": -73.86001
  },
  {
    "id": "SUB_J17",
    "name": "75 St-Elderts Ln",
    "lat": 40.691324,
    "lon": -73.867139
  },
  {
    "id": "SUB_J19",
    "name": "Cypress Hills",
    "lat": 40.689941,
    "lon": -73.87255
  },
  {
    "id": "SUB_J20",
    "name": "Crescent St",
    "lat": 40.683194,
    "lon": -73.873785
  },
  {
    "id": "SUB_J21",
    "name": "Norwood Av",
    "lat": 40.68141,
    "lon": -73.880039
  },
  {
    "id": "SUB_J22",
    "name": "Cleveland St",
    "lat": 40.679947,
    "lon": -73.884639
  },
  {
    "id": "SUB_J23",
    "name": "Van Siclen Av",
    "lat": 40.678024,
    "lon": -73.891688
  },
  {
    "id": "SUB_J24",
    "name": "Alabama Av",
    "lat": 40.676992,
    "lon": -73.898654
  },
  {
    "id": "SUB_J27",
    "name": "Broadway Junction",
    "lat": 40.679498,
    "lon": -73.904512
  },
  {
    "id": "SUB_J28",
    "name": "Chauncey St",
    "lat": 40.682893,
    "lon": -73.910456
  },
  {
    "id": "SUB_J29",
    "name": "Halsey St",
    "lat": 40.68637,
    "lon": -73.916559
  },
  {
    "id": "SUB_J30",
    "name": "Gates Av",
    "lat": 40.68963,
    "lon": -73.92227
  },
  {
    "id": "SUB_J31",
    "name": "Kosciuszko St",
    "lat": 40.693342,
    "lon": -73.928814
  },
  {
    "id": "SUB_L01",
    "name": "8 Av",
    "lat": 40.739777,
    "lon": -74.002578
  },
  {
    "id": "SUB_L02",
    "name": "6 Av",
    "lat": 40.737335,
    "lon": -73.996786
  },
  {
    "id": "SUB_L03",
    "name": "14 St-Union Sq",
    "lat": 40.734789,
    "lon": -73.99073
  },
  {
    "id": "SUB_L05",
    "name": "3 Av",
    "lat": 40.732849,
    "lon": -73.986122
  },
  {
    "id": "SUB_L06",
    "name": "1 Av",
    "lat": 40.730953,
    "lon": -73.981628
  },
  {
    "id": "SUB_L08",
    "name": "Bedford Av",
    "lat": 40.717304,
    "lon": -73.956872
  },
  {
    "id": "SUB_L10",
    "name": "Lorimer St",
    "lat": 40.714063,
    "lon": -73.950275
  },
  {
    "id": "SUB_L11",
    "name": "Graham Av",
    "lat": 40.714565,
    "lon": -73.944053
  },
  {
    "id": "SUB_L12",
    "name": "Grand St",
    "lat": 40.711926,
    "lon": -73.94067
  },
  {
    "id": "SUB_L13",
    "name": "Montrose Av",
    "lat": 40.707739,
    "lon": -73.93985
  },
  {
    "id": "SUB_L14",
    "name": "Morgan Av",
    "lat": 40.706152,
    "lon": -73.933147
  },
  {
    "id": "SUB_L15",
    "name": "Jefferson St",
    "lat": 40.706607,
    "lon": -73.922913
  },
  {
    "id": "SUB_L16",
    "name": "DeKalb Av",
    "lat": 40.703811,
    "lon": -73.918425
  },
  {
    "id": "SUB_L17",
    "name": "Myrtle-Wyckoff Avs",
    "lat": 40.699814,
    "lon": -73.911586
  },
  {
    "id": "SUB_L19",
    "name": "Halsey St",
    "lat": 40.695602,
    "lon": -73.904084
  },
  {
    "id": "SUB_L20",
    "name": "Wilson Av",
    "lat": 40.688764,
    "lon": -73.904046
  },
  {
    "id": "SUB_L21",
    "name": "Bushwick Av-Aberdeen St",
    "lat": 40.682829,
    "lon": -73.905249
  },
  {
    "id": "SUB_L22",
    "name": "Broadway Junction",
    "lat": 40.678856,
    "lon": -73.90324
  },
  {
    "id": "SUB_L24",
    "name": "Atlantic Av",
    "lat": 40.675345,
    "lon": -73.903097
  },
  {
    "id": "SUB_L25",
    "name": "Sutter Av",
    "lat": 40.669367,
    "lon": -73.901975
  },
  {
    "id": "SUB_L26",
    "name": "Livonia Av",
    "lat": 40.664038,
    "lon": -73.900571
  },
  {
    "id": "SUB_L27",
    "name": "New Lots Av",
    "lat": 40.658733,
    "lon": -73.899232
  },
  {
    "id": "SUB_L28",
    "name": "East 105 St",
    "lat": 40.650573,
    "lon": -73.899485
  },
  {
    "id": "SUB_L29",
    "name": "Canarsie-Rockaway Pkwy",
    "lat": 40.646654,
    "lon": -73.90185
  },
  {
    "id": "SUB_M01",
    "name": "Middle Village-Metropolitan Av",
    "lat": 40.711396,
    "lon": -73.889601
  },
  {
    "id": "SUB_M04",
    "name": "Fresh Pond Rd",
    "lat": 40.706186,
    "lon": -73.895877
  },
  {
    "id": "SUB_M05",
    "name": "Forest Av",
    "lat": 40.704423,
    "lon": -73.903077
  },
  {
    "id": "SUB_M06",
    "name": "Seneca Av",
    "lat": 40.702762,
    "lon": -73.90774
  },
  {
    "id": "SUB_M08",
    "name": "Myrtle-Wyckoff Avs",
    "lat": 40.69943,
    "lon": -73.912385
  },
  {
    "id": "SUB_M09",
    "name": "Knickerbocker Av",
    "lat": 40.698664,
    "lon": -73.919711
  },
  {
    "id": "SUB_M10",
    "name": "Central Av",
    "lat": 40.697857,
    "lon": -73.927397
  },
  {
    "id": "SUB_M11",
    "name": "Myrtle Av",
    "lat": 40.697207,
    "lon": -73.935657
  },
  {
    "id": "SUB_M12",
    "name": "Flushing Av",
    "lat": 40.70026,
    "lon": -73.941126
  },
  {
    "id": "SUB_M13",
    "name": "Lorimer St",
    "lat": 40.703869,
    "lon": -73.947408
  },
  {
    "id": "SUB_M14",
    "name": "Hewes St",
    "lat": 40.70687,
    "lon": -73.953431
  },
  {
    "id": "SUB_M16",
    "name": "Marcy Av",
    "lat": 40.708359,
    "lon": -73.957757
  },
  {
    "id": "SUB_M18",
    "name": "Delancey St-Essex St",
    "lat": 40.718315,
    "lon": -73.987437
  },
  {
    "id": "SUB_M19",
    "name": "Bowery",
    "lat": 40.72028,
    "lon": -73.993915
  },
  {
    "id": "SUB_M20",
    "name": "Canal St",
    "lat": 40.718092,
    "lon": -73.999892
  },
  {
    "id": "SUB_M21",
    "name": "Chambers St",
    "lat": 40.713243,
    "lon": -74.003401
  },
  {
    "id": "SUB_M22",
    "name": "Fulton St",
    "lat": 40.710374,
    "lon": -74.007582
  },
  {
    "id": "SUB_M23",
    "name": "Broad St",
    "lat": 40.706476,
    "lon": -74.011056
  },
  {
    "id": "SUB_N02",
    "name": "8 Av",
    "lat": 40.635064,
    "lon": -74.011719
  },
  {
    "id": "SUB_N03",
    "name": "Fort Hamilton Pkwy",
    "lat": 40.631386,
    "lon": -74.005351
  },
  {
    "id": "SUB_N04",
    "name": "New Utrecht Av",
    "lat": 40.624842,
    "lon": -73.996353
  },
  {
    "id": "SUB_N05",
    "name": "18 Av",
    "lat": 40.620671,
    "lon": -73.990414
  },
  {
    "id": "SUB_N06",
    "name": "20 Av",
    "lat": 40.61741,
    "lon": -73.985026
  },
  {
    "id": "SUB_N07",
    "name": "Bay Pkwy",
    "lat": 40.611815,
    "lon": -73.981848
  },
  {
    "id": "SUB_N08",
    "name": "Kings Hwy",
    "lat": 40.603923,
    "lon": -73.980353
  },
  {
    "id": "SUB_N09",
    "name": "Avenue U",
    "lat": 40.597473,
    "lon": -73.979137
  },
  {
    "id": "SUB_N10",
    "name": "86 St",
    "lat": 40.592721,
    "lon": -73.97823
  },
  {
    "id": "SUB_Q01",
    "name": "Canal St",
    "lat": 40.718383,
    "lon": -74.00046
  },
  {
    "id": "SUB_Q03",
    "name": "72 St",
    "lat": 40.768799,
    "lon": -73.958424
  },
  {
    "id": "SUB_Q04",
    "name": "86 St",
    "lat": 40.777891,
    "lon": -73.951787
  },
  {
    "id": "SUB_Q05",
    "name": "96 St",
    "lat": 40.784318,
    "lon": -73.947152
  },
  {
    "id": "SUB_R01",
    "name": "Astoria-Ditmars Blvd",
    "lat": 40.775036,
    "lon": -73.912034
  },
  {
    "id": "SUB_R03",
    "name": "Astoria Blvd",
    "lat": 40.770258,
    "lon": -73.917843
  },
  {
    "id": "SUB_R04",
    "name": "30 Av",
    "lat": 40.766779,
    "lon": -73.921479
  },
  {
    "id": "SUB_R05",
    "name": "Broadway",
    "lat": 40.76182,
    "lon": -73.925508
  },
  {
    "id": "SUB_R06",
    "name": "36 Av",
    "lat": 40.756804,
    "lon": -73.929575
  },
  {
    "id": "SUB_R08",
    "name": "39 Av-Dutch Kills",
    "lat": 40.752882,
    "lon": -73.932755
  },
  {
    "id": "SUB_R11",
    "name": "Lexington Av/59 St",
    "lat": 40.76266,
    "lon": -73.967258
  },
  {
    "id": "SUB_R13",
    "name": "5 Av/59 St",
    "lat": 40.764811,
    "lon": -73.973347
  },
  {
    "id": "SUB_R14",
    "name": "57 St-7 Av",
    "lat": 40.764664,
    "lon": -73.980658
  },
  {
    "id": "SUB_R15",
    "name": "49 St",
    "lat": 40.759901,
    "lon": -73.984139
  },
  {
    "id": "SUB_R16",
    "name": "Times Sq-42 St",
    "lat": 40.754672,
    "lon": -73.986754
  },
  {
    "id": "SUB_R17",
    "name": "34 St-Herald Sq",
    "lat": 40.749567,
    "lon": -73.98795
  },
  {
    "id": "SUB_R18",
    "name": "28 St",
    "lat": 40.745494,
    "lon": -73.988691
  },
  {
    "id": "SUB_R19",
    "name": "23 St",
    "lat": 40.741303,
    "lon": -73.989344
  },
  {
    "id": "SUB_R20",
    "name": "14 St-Union Sq",
    "lat": 40.735736,
    "lon": -73.990568
  },
  {
    "id": "SUB_R21",
    "name": "8 St-NYU",
    "lat": 40.730328,
    "lon": -73.992629
  },
  {
    "id": "SUB_R22",
    "name": "Prince St",
    "lat": 40.724329,
    "lon": -73.997702
  },
  {
    "id": "SUB_R23",
    "name": "Canal St",
    "lat": 40.719527,
    "lon": -74.001775
  },
  {
    "id": "SUB_R24",
    "name": "City Hall",
    "lat": 40.713282,
    "lon": -74.006978
  },
  {
    "id": "SUB_R25",
    "name": "Cortlandt St",
    "lat": 40.710668,
    "lon": -74.011029
  },
  {
    "id": "SUB_R26",
    "name": "Rector St",
    "lat": 40.70722,
    "lon": -74.013342
  },
  {
    "id": "SUB_R27",
    "name": "Whitehall St-South Ferry",
    "lat": 40.703087,
    "lon": -74.012994
  },
  {
    "id": "SUB_R28",
    "name": "Court St",
    "lat": 40.6941,
    "lon": -73.991777
  },
  {
    "id": "SUB_R29",
    "name": "Jay St-MetroTech",
    "lat": 40.69218,
    "lon": -73.985942
  },
  {
    "id": "SUB_R30",
    "name": "DeKalb Av",
    "lat": 40.690635,
    "lon": -73.981824
  },
  {
    "id": "SUB_R31",
    "name": "Atlantic Av-Barclays Ctr",
    "lat": 40.683666,
    "lon": -73.97881
  },
  {
    "id": "SUB_R32",
    "name": "Union St",
    "lat": 40.677316,
    "lon": -73.98311
  },
  {
    "id": "SUB_R33",
    "name": "4 Av-9 St",
    "lat": 40.670847,
    "lon": -73.988302
  },
  {
    "id": "SUB_R34",
    "name": "Prospect Av",
    "lat": 40.665414,
    "lon": -73.992872
  },
  {
    "id": "SUB_R35",
    "name": "25 St",
    "lat": 40.660397,
    "lon": -73.998091
  },
  {
    "id": "SUB_R36",
    "name": "36 St",
    "lat": 40.655144,
    "lon": -74.003549
  },
  {
    "id": "SUB_R39",
    "name": "45 St",
    "lat": 40.648939,
    "lon": -74.010006
  },
  {
    "id": "SUB_R40",
    "name": "53 St",
    "lat": 40.645069,
    "lon": -74.014034
  },
  {
    "id": "SUB_R41",
    "name": "59 St",
    "lat": 40.641362,
    "lon": -74.017881
  },
  {
    "id": "SUB_R42",
    "name": "Bay Ridge Av",
    "lat": 40.634967,
    "lon": -74.023377
  },
  {
    "id": "SUB_R43",
    "name": "77 St",
    "lat": 40.629742,
    "lon": -74.02551
  },
  {
    "id": "SUB_R44",
    "name": "86 St",
    "lat": 40.622687,
    "lon": -74.028398
  },
  {
    "id": "SUB_R45",
    "name": "Bay Ridge-95 St",
    "lat": 40.616622,
    "lon": -74.030876
  },
  {
    "id": "SUB_S01",
    "name": "Franklin Av",
    "lat": 40.680596,
    "lon": -73.955827
  },
  {
    "id": "SUB_S03",
    "name": "Park Pl",
    "lat": 40.674772,
    "lon": -73.957624
  },
  {
    "id": "SUB_S04",
    "name": "Botanic Garden",
    "lat": 40.670343,
    "lon": -73.959245
  },
  {
    "id": "SUB_S09",
    "name": "Tottenville",
    "lat": 40.512764,
    "lon": -74.251961
  },
  {
    "id": "SUB_S11",
    "name": "Arthur Kill",
    "lat": 40.516578,
    "lon": -74.242096
  },
  {
    "id": "SUB_S13",
    "name": "Richmond Valley",
    "lat": 40.519631,
    "lon": -74.229141
  },
  {
    "id": "SUB_S14",
    "name": "Pleasant Plains",
    "lat": 40.52241,
    "lon": -74.217847
  },
  {
    "id": "SUB_S15",
    "name": "Prince's Bay",
    "lat": 40.525507,
    "lon": -74.200064
  },
  {
    "id": "SUB_S16",
    "name": "Huguenot",
    "lat": 40.533674,
    "lon": -74.191794
  },
  {
    "id": "SUB_S17",
    "name": "Annadale",
    "lat": 40.54046,
    "lon": -74.178217
  },
  {
    "id": "SUB_S18",
    "name": "Eltingville",
    "lat": 40.544601,
    "lon": -74.16457
  },
  {
    "id": "SUB_S19",
    "name": "Great Kills",
    "lat": 40.551231,
    "lon": -74.151399
  },
  {
    "id": "SUB_S20",
    "name": "Bay Terrace",
    "lat": 40.5564,
    "lon": -74.136907
  },
  {
    "id": "SUB_S21",
    "name": "Oakwood Heights",
    "lat": 40.56511,
    "lon": -74.12632
  },
  {
    "id": "SUB_S22",
    "name": "New Dorp",
    "lat": 40.57348,
    "lon": -74.11721
  },
  {
    "id": "SUB_S23",
    "name": "Grant City",
    "lat": 40.578965,
    "lon": -74.109704
  },
  {
    "id": "SUB_S24",
    "name": "Jefferson Av",
    "lat": 40.583591,
    "lon": -74.103338
  },
  {
    "id": "SUB_S25",
    "name": "Dongan Hills",
    "lat": 40.588849,
    "lon": -74.09609
  },
  {
    "id": "SUB_S26",
    "name": "Old Town",
    "lat": 40.596612,
    "lon": -74.087368
  },
  {
    "id": "SUB_S27",
    "name": "Grasmere",
    "lat": 40.603117,
    "lon": -74.084087
  },
  {
    "id": "SUB_S28",
    "name": "Clifton",
    "lat": 40.621319,
    "lon": -74.071402
  },
  {
    "id": "SUB_S29",
    "name": "Stapleton",
    "lat": 40.627915,
    "lon": -74.075162
  },
  {
    "id": "SUB_S30",
    "name": "Tompkinsville",
    "lat": 40.636949,
    "lon": -74.074835
  },
  {
    "id": "SUB_S31",
    "name": "St George",
    "lat": 40.643748,
    "lon": -74.073643
  },
  {
    "id": "BX_100014",
    "name": "\"BEDFORD PK BLVD/GRAND CONCOURSE\"",
    "lat": 40.872562,
    "lon": -73.888156
  },
  {
    "id": "BX_100017",
    "name": "\"PAUL AV/W 205 ST\"",
    "lat": 40.876836,
    "lon": -73.88971
  },
  {
    "id": "BX_100018",
    "name": "\"PAUL AV/WEST MOSHOLU PKWY SOUTH\"",
    "lat": 40.880392,
    "lon": -73.886081
  },
  {
    "id": "BX_100019",
    "name": "\"GRAND CONCOURSE/E 138 ST\"",
    "lat": 40.813496,
    "lon": -73.929489
  },
  {
    "id": "BX_100020",
    "name": "\"GRAND CONCOURSE/E 144 ST\"",
    "lat": 40.816812,
    "lon": -73.928001
  },
  {
    "id": "BX_100021",
    "name": "\"GRAND CONCOURSE/E 149 ST\"",
    "lat": 40.818856,
    "lon": -73.927096
  },
  {
    "id": "BX_100022",
    "name": "\"GRAND CONCOURSE/E 153 ST\"",
    "lat": 40.821103,
    "lon": -73.925751
  },
  {
    "id": "BX_100025",
    "name": "\"GRAND CONCOURSE/E 161 ST\"",
    "lat": 40.826453,
    "lon": -73.922795
  },
  {
    "id": "BX_100026",
    "name": "\"GRAND CONCOURSE/E 163 ST\"",
    "lat": 40.828837,
    "lon": -73.921328
  },
  {
    "id": "BX_100027",
    "name": "\"GRAND CONCOURSE/E 165 ST\"",
    "lat": 40.831317,
    "lon": -73.919938
  },
  {
    "id": "BX_100028",
    "name": "\"GRAND CONCOURSE/MCCLELLAN ST\"",
    "lat": 40.833276,
    "lon": -73.918555
  },
  {
    "id": "BX_100029",
    "name": "\"GRAND CONCOURSE/E 167 ST\"",
    "lat": 40.834762,
    "lon": -73.917133
  },
  {
    "id": "BX_100030",
    "name": "\"GRAND CONCOURSE/E 169 ST\"",
    "lat": 40.83657,
    "lon": -73.915371
  },
  {
    "id": "BX_100033",
    "name": "\"GRAND CONCOURSE/MOUNT EDEN AV\"",
    "lat": 40.843511,
    "lon": -73.911556
  },
  {
    "id": "BX_100035",
    "name": "\"GRAND CONCOURSE/E 175 ST\"",
    "lat": 40.846739,
    "lon": -73.908556
  },
  {
    "id": "BX_100038",
    "name": "\"GRAND CONCOURSE/E 179 ST\"",
    "lat": 40.85093,
    "lon": -73.904494
  },
  {
    "id": "BX_100039",
    "name": "\"GRAND CONCOURSE/EAST BURNSIDE AV\"",
    "lat": 40.852087,
    "lon": -73.903564
  },
  {
    "id": "BX_100040",
    "name": "\"GRAND CONCOURSE/E 180 ST\"",
    "lat": 40.853719,
    "lon": -73.902245
  },
  {
    "id": "BX_100041",
    "name": "\"GRAND CONCOURSE/E 182 ST\"",
    "lat": 40.856254,
    "lon": -73.900358
  },
  {
    "id": "BX_100044",
    "name": "\"GRAND CONCOURSE/E 187 ST\"",
    "lat": 40.860569,
    "lon": -73.897865
  },
  {
    "id": "BX_100045",
    "name": "\"GRAND CONCOURSE/E FORDHAM RD\"",
    "lat": 40.863097,
    "lon": -73.896368
  },
  {
    "id": "BX_100047",
    "name": "\"GRAND CONCOURSE/EAST KINGSBRIDGE RD\"",
    "lat": 40.866343,
    "lon": -73.893861
  },
  {
    "id": "BX_100048",
    "name": "\"GRAND CONCOURSE/E 196 ST\"",
    "lat": 40.868079,
    "lon": -73.892542
  },
  {
    "id": "BX_100049",
    "name": "\"GRAND CONCOURSE/E 198 ST\"",
    "lat": 40.870243,
    "lon": -73.89042
  },
  {
    "id": "BX_100052",
    "name": "\"GRAND CONCOURSE/E 206 ST\"",
    "lat": 40.876301,
    "lon": -73.88551
  },
  {
    "id": "BX_100053",
    "name": "\"GRAND CONCOURSE/EAST MOSHOLU PKWY SOUTH\"",
    "lat": 40.877992,
    "lon": -73.884717
  },
  {
    "id": "BX_100054",
    "name": "\"EAST MOSHOLU PKWY SOUTH/JEROME AV\"",
    "lat": 40.879494,
    "lon": -73.8856
  },
  {
    "id": "BX_100055",
    "name": "\"WEST MOSHOLU PKWY SOUTH/PAUL AV\"",
    "lat": 40.880437,
    "lon": -73.885902
  },
  {
    "id": "BX_100056",
    "name": "\"SEDGWICK AV/DICKINSON AV\"",
    "lat": 40.882852,
    "lon": -73.888859
  },
  {
    "id": "BX_100057",
    "name": "\"SEDGWICK AV/HILLMAN AV\"",
    "lat": 40.882463,
    "lon": -73.891351
  },
  {
    "id": "BX_100058",
    "name": "\"SEDGWICK AV/VAN CORTLANDT AV WEST\"",
    "lat": 40.882827,
    "lon": -73.893361
  },
  {
    "id": "BX_100059",
    "name": "\"SEDGWICK AV/STEVENSON PL\"",
    "lat": 40.882691,
    "lon": -73.895187
  },
  {
    "id": "BX_100060",
    "name": "\"SEDGWICK AV/GILES PL\"",
    "lat": 40.880925,
    "lon": -73.896698
  },
  {
    "id": "BX_100061",
    "name": "\"SEDGWICK AV/FORT INDEPENDENCE ST\"",
    "lat": 40.878651,
    "lon": -73.897918
  },
  {
    "id": "BX_100062",
    "name": "\"HEATH AV/SUMMIT PL\"",
    "lat": 40.877891,
    "lon": -73.901519
  },
  {
    "id": "BX_100063",
    "name": "\"ALBANY CR/BAILEY AV\"",
    "lat": 40.876877,
    "lon": -73.903177
  },
  {
    "id": "BX_100064",
    "name": "\"W 231 ST/BAILEY AV\"",
    "lat": 40.878232,
    "lon": -73.90277
  },
  {
    "id": "BX_100065",
    "name": "\"W 231 ST/BROADWAY\"",
    "lat": 40.879254,
    "lon": -73.9054
  },
  {
    "id": "BX_100066",
    "name": "\"W 231 ST/KINGSBRIDGE AV\"",
    "lat": 40.880047,
    "lon": -73.906872
  },
  {
    "id": "BX_100068",
    "name": "\"RIVERDALE AV/GREYSTONE AV\"",
    "lat": 40.884362,
    "lon": -73.90747
  },
  {
    "id": "BX_100069",
    "name": "\"RIVERDALE AV/W 236 ST\"",
    "lat": 40.88695,
    "lon": -73.90696
  },
  {
    "id": "BX_100070",
    "name": "\"RIVERDALE AV/W 238 ST\"",
    "lat": 40.888109,
    "lon": -73.907428
  },
  {
    "id": "BX_100071",
    "name": "\"HENRY HUDSON PKWY EAST/W 239 ST\"",
    "lat": 40.889537,
    "lon": -73.908059
  },
  {
    "id": "BX_100076",
    "name": "\"RIVERDALE AV/W 238 ST\"",
    "lat": 40.887911,
    "lon": -73.907577
  },
  {
    "id": "BX_100077",
    "name": "\"RIVERDALE AV/W 236 ST\"",
    "lat": 40.886429,
    "lon": -73.907076
  },
  {
    "id": "BX_100080",
    "name": "\"PAUL AV/BEDFORD PARK BLVD\"",
    "lat": 40.874629,
    "lon": -73.891539
  },
  {
    "id": "BX_100082",
    "name": "\"W 231 ST/RIVERDALE AV\"",
    "lat": 40.881211,
    "lon": -73.90921
  },
  {
    "id": "BX_100084",
    "name": "\"W 231 ST/BROADWAY\"",
    "lat": 40.878698,
    "lon": -73.904415
  },
  {
    "id": "BX_100085",
    "name": "\"W 231 ST/BAILEY AV\"",
    "lat": 40.878029,
    "lon": -73.902633
  },
  {
    "id": "BX_100087",
    "name": "\"HEATH AV/SUMMIT PL\"",
    "lat": 40.878321,
    "lon": -73.900958
  },
  {
    "id": "BX_100088",
    "name": "\"SEDGWICK AV/FORT INDEPENDENCE ST\"",
    "lat": 40.878665,
    "lon": -73.897767
  },
  {
    "id": "BX_100089",
    "name": "\"SEDGWICK AV/GILES PL\"",
    "lat": 40.881501,
    "lon": -73.896448
  },
  {
    "id": "BX_100090",
    "name": "\"SEDGWICK AV/STEVENSON PL 1\"",
    "lat": 40.882913,
    "lon": -73.894366
  },
  {
    "id": "BX_100096",
    "name": "\"GRAND CONCOURSE/VAN CORTLANDT AV EAST\"",
    "lat": 40.876996,
    "lon": -73.885681
  },
  {
    "id": "BX_100098",
    "name": "\"GRAND CONCOURSE/BEDFORD PK BLVD\"",
    "lat": 40.872033,
    "lon": -73.888206
  },
  {
    "id": "BX_100100",
    "name": "\"GRAND CONCOURSE/E 196 ST\"",
    "lat": 40.868052,
    "lon": -73.89312
  },
  {
    "id": "BX_100101",
    "name": "\"GRAND CONCOURSE/EAST KINGSBRIDGE RD\"",
    "lat": 40.865775,
    "lon": -73.894863
  },
  {
    "id": "BX_100102",
    "name": "\"GRAND CONCOURSE/E 192 ST\"",
    "lat": 40.863998,
    "lon": -73.896254
  },
  {
    "id": "BX_100103",
    "name": "\"GRAND CONCOURSE/E FORDHAM RD\"",
    "lat": 40.86223,
    "lon": -73.897531
  },
  {
    "id": "BX_100107",
    "name": "\"GRAND CONCOURSE/E 182 ST\"",
    "lat": 40.855821,
    "lon": -73.90123
  },
  {
    "id": "BX_100108",
    "name": "\"GRAND CONCOURSE/E 181 ST\"",
    "lat": 40.854276,
    "lon": -73.902425
  },
  {
    "id": "BX_100109",
    "name": "\"GRAND CONCOURSE/EAST BURNSIDE AV\"",
    "lat": 40.852653,
    "lon": -73.903733
  },
  {
    "id": "BX_100110",
    "name": "\"GRAND CONCOURSE/E 179 ST\"",
    "lat": 40.851248,
    "lon": -73.904866
  },
  {
    "id": "BX_100112",
    "name": "\"GRAND CONCOURSE/MORRIS AV\"",
    "lat": 40.846914,
    "lon": -73.909021
  },
  {
    "id": "BX_100113",
    "name": "\"GRAND CONCOURSE/E 174 ST\"",
    "lat": 40.844861,
    "lon": -73.911551
  },
  {
    "id": "BX_100114",
    "name": "\"GRAND CONCOURSE/EAST MOUNT EDEN AV\"",
    "lat": 40.842905,
    "lon": -73.912309
  },
  {
    "id": "BX_100115",
    "name": "\"GRAND CONCOURSE/E 172 ST\"",
    "lat": 40.840638,
    "lon": -73.913071
  },
  {
    "id": "BX_100117",
    "name": "\"GRAND CONCOURSE/E CLARKE PL\"",
    "lat": 40.836746,
    "lon": -73.915851
  },
  {
    "id": "BX_100118",
    "name": "\"GRAND CONCOURSE/E 167 ST\"",
    "lat": 40.834228,
    "lon": -73.918308
  },
  {
    "id": "BX_100119",
    "name": "\"GRAND CONCOURSE/McCLELLAN ST\"",
    "lat": 40.833254,
    "lon": -73.919209
  },
  {
    "id": "BX_100126",
    "name": "\"MELROSE AV/E 158 ST\"",
    "lat": 40.822016,
    "lon": -73.91506
  },
  {
    "id": "BX_100129",
    "name": "\"MELROSE AV/E 152 ST\"",
    "lat": 40.817929,
    "lon": -73.917028
  },
  {
    "id": "BX_100131",
    "name": "\"GRAND CONCOURSE/E 165 ST\"",
    "lat": 40.831175,
    "lon": -73.920603
  },
  {
    "id": "BX_100132",
    "name": "\"GRAND CONCOURSE/E 163 ST\"",
    "lat": 40.828357,
    "lon": -73.922106
  },
  {
    "id": "BX_100133",
    "name": "\"GRAND CONCOURSE/E 161 ST\"",
    "lat": 40.826258,
    "lon": -73.923044
  },
  {
    "id": "BX_100135",
    "name": "\"GRAND CONCOURSE/E 156 ST\"",
    "lat": 40.823109,
    "lon": -73.924629
  },
  {
    "id": "BX_100136",
    "name": "\"GRAND CONCOURSE/E 153 ST\"",
    "lat": 40.82113,
    "lon": -73.925891
  },
  {
    "id": "BX_100138",
    "name": "\"GRAND CONCOURSE/E 149 ST\"",
    "lat": 40.818702,
    "lon": -73.927286
  },
  {
    "id": "BX_100139",
    "name": "\"GRAND CONCOURSE/E 144 ST\"",
    "lat": 40.816194,
    "lon": -73.928408
  },
  {
    "id": "BX_100140",
    "name": "\"GRAND CONCOURSE/E 138 ST\"",
    "lat": 40.813486,
    "lon": -73.930284
  },
  {
    "id": "BX_100148",
    "name": "\"UNIVERSITY AV/GEORGE WASHINGTON BRIDGE\"",
    "lat": 40.845711,
    "lon": -73.921894
  },
  {
    "id": "BX_100149",
    "name": "\"UNIVERSITY AV/W 174 ST\"",
    "lat": 40.846858,
    "lon": -73.92044
  },
  {
    "id": "BX_100151",
    "name": "\"UNIVERSITY AV/W 176 ST\"",
    "lat": 40.84892,
    "lon": -73.917381
  },
  {
    "id": "BX_100152",
    "name": "\"UNIVERSITY AV/WEST TREMONT AV\"",
    "lat": 40.850268,
    "lon": -73.915494
  },
  {
    "id": "BX_100155",
    "name": "\"UNIVERSITY AV/WEST BURNSIDE AV\"",
    "lat": 40.854707,
    "lon": -73.911236
  },
  {
    "id": "BX_100156",
    "name": "\"UNIVERSITY AV/W 181 ST\"",
    "lat": 40.857351,
    "lon": -73.909569
  },
  {
    "id": "BX_100157",
    "name": "\"UNIVERSITY AV/W 183 ST\"",
    "lat": 40.859697,
    "lon": -73.907623
  },
  {
    "id": "BX_100159",
    "name": "\"UNIVERSITY AV/WEST FORDHAM RD\"",
    "lat": 40.862638,
    "lon": -73.904979
  },
  {
    "id": "BX_100161",
    "name": "\"UNIVERSITY AV/W 190 ST\"",
    "lat": 40.865519,
    "lon": -73.903034
  },
  {
    "id": "BX_100162",
    "name": "\"UNIVERSITY AV/W 192 ST\"",
    "lat": 40.86722,
    "lon": -73.901763
  },
  {
    "id": "BX_100164",
    "name": "\"WEST KINGSBRIDGE RD/SEDGWICK AV\"",
    "lat": 40.869541,
    "lon": -73.903603
  },
  {
    "id": "BX_100166",
    "name": "\"SEDGWICK AV/W 197 ST\"",
    "lat": 40.872786,
    "lon": -73.901961
  },
  {
    "id": "BX_100169",
    "name": "\"FORT INDEPENDENCE ST/GILES PL\"",
    "lat": 40.878638,
    "lon": -73.898998
  },
  {
    "id": "BX_100170",
    "name": "\"FORT INDEPENDENCE ST/BAILEY PL\"",
    "lat": 40.880716,
    "lon": -73.899081
  },
  {
    "id": "BX_100171",
    "name": "\"W 238 ST/ORLOFF AV\"",
    "lat": 40.883001,
    "lon": -73.897776
  },
  {
    "id": "BX_100172",
    "name": "\"W 238 ST/BAILEY AV\"",
    "lat": 40.884297,
    "lon": -73.898273
  },
  {
    "id": "BX_100173",
    "name": "\"W 238 ST/BROADWAY\"",
    "lat": 40.885085,
    "lon": -73.900434
  },
  {
    "id": "BX_100176",
    "name": "\"W 238 ST/BROADWAY\"",
    "lat": 40.884969,
    "lon": -73.900478
  },
  {
    "id": "BX_100177",
    "name": "\"W 238 ST/BAILEY AV\"",
    "lat": 40.884069,
    "lon": -73.89823
  },
  {
    "id": "BX_100178",
    "name": "\"W 238 ST/ORLOFF AV\"",
    "lat": 40.882502,
    "lon": -73.898138
  },
  {
    "id": "BX_100179",
    "name": "\"FORT INDEPENDENCE ST/BAILEY PL\"",
    "lat": 40.881015,
    "lon": -73.8992
  },
  {
    "id": "BX_100180",
    "name": "\"FORT INDEPENDENCE ST/HEATH AV\"",
    "lat": 40.878971,
    "lon": -73.899692
  },
  {
    "id": "BX_100183",
    "name": "\"SEDGWICK AV/W 197 ST\"",
    "lat": 40.872199,
    "lon": -73.902327
  },
  {
    "id": "BX_100187",
    "name": "\"UNIVERSITY AV/W 192 ST\"",
    "lat": 40.867105,
    "lon": -73.902085
  },
  {
    "id": "BX_100188",
    "name": "\"UNIVERSITY AV/W 190 ST\"",
    "lat": 40.865122,
    "lon": -73.903489
  },
  {
    "id": "BX_100189",
    "name": "\"UNIVERSITY AV/WEST FORDHAM RD\"",
    "lat": 40.862861,
    "lon": -73.904923
  },
  {
    "id": "BX_100191",
    "name": "\"UNIVERSITY AV/W 183 ST\"",
    "lat": 40.859354,
    "lon": -73.908072
  },
  {
    "id": "BX_100195",
    "name": "\"UNIVERSITY AV/WEST TREMONT AV\"",
    "lat": 40.850235,
    "lon": -73.916007
  },
  {
    "id": "BX_100199",
    "name": "\"UNIVERSITY AV/G W BRIDGE ENTRANCE RAMP\"",
    "lat": 40.845313,
    "lon": -73.922556
  },
  {
    "id": "BX_100204",
    "name": "\"WESTCHESTER AV/SAINT ANN'S AV\"",
    "lat": 40.816026,
    "lon": -73.912148
  },
  {
    "id": "BX_100206",
    "name": "\"WESTCHESTER AV/JACKSON AV\"",
    "lat": 40.816164,
    "lon": -73.90832
  },
  {
    "id": "BX_100207",
    "name": "\"WESTCHESTER AV/E 156 ST\"",
    "lat": 40.817829,
    "lon": -73.905423
  },
  {
    "id": "BX_100209",
    "name": "\"WESTCHESTER AV/PROSPECT AV\"",
    "lat": 40.819413,
    "lon": -73.902025
  },
  {
    "id": "BX_100211",
    "name": "\"WESTCHESTER AV/REV J POLITE AV\"",
    "lat": 40.82088,
    "lon": -73.899106
  },
  {
    "id": "BX_100212",
    "name": "\"WESTCHESTER AV/INTERVALE AV\"",
    "lat": 40.821942,
    "lon": -73.897089
  },
  {
    "id": "BX_100214",
    "name": "\"WESTCHESTER AV/SIMPSON ST\"",
    "lat": 40.824006,
    "lon": -73.893119
  },
  {
    "id": "BX_100219",
    "name": "\"WESTCHESTER AV/WHITLOCK AV\"",
    "lat": 40.827495,
    "lon": -73.886273
  },
  {
    "id": "BX_100221",
    "name": "\"WESTCHESTER AV/ELDER AV\"",
    "lat": 40.828514,
    "lon": -73.879317
  },
  {
    "id": "BX_100223",
    "name": "\"WESTCHESTER AV/MANOR AV\"",
    "lat": 40.828936,
    "lon": -73.876559
  },
  {
    "id": "BX_100224",
    "name": "\"WESTCHESTER AV/MORRISON AV\"",
    "lat": 40.829418,
    "lon": -73.874811
  },
  {
    "id": "BX_100227",
    "name": "\"WESTCHESTER AV/SAINT LAWRENCE AV\"",
    "lat": 40.831479,
    "lon": -73.867565
  },
  {
    "id": "BX_100230",
    "name": "\"WESTCHESTER AV/WHITE PLAINS RD\"",
    "lat": 40.83278,
    "lon": -73.862939
  },
  {
    "id": "BX_100232",
    "name": "\"WESTCHESTER AV/PUGSLEY AV\"",
    "lat": 40.833501,
    "lon": -73.857922
  },
  {
    "id": "BX_100233",
    "name": "\"WESTCHESTER AV/OLMSTEAD AV\"",
    "lat": 40.833915,
    "lon": -73.854443
  },
  {
    "id": "BX_100234",
    "name": "\"WESTCHESTER AV/CASTLE HILL AV\"",
    "lat": 40.834155,
    "lon": -73.851827
  },
  {
    "id": "BX_100235",
    "name": "\"WESTCHESTER AV/ZEREGA AV\"",
    "lat": 40.836705,
    "lon": -73.846717
  },
  {
    "id": "BX_100236",
    "name": "\"WESTCHESTER AV/SAINT PETERS AV\"",
    "lat": 40.83843,
    "lon": -73.844688
  },
  {
    "id": "BX_100239",
    "name": "\"WESTCHESTER AV/SAINT PETERS AV\"",
    "lat": 40.838694,
    "lon": -73.844549
  },
  {
    "id": "BX_100240",
    "name": "\"WESTCHESTER AV/ZEREGA AV\"",
    "lat": 40.836939,
    "lon": -73.846611
  },
  {
    "id": "BX_100242",
    "name": "\"WESTCHESTER AV/CASTLE HILL AV\"",
    "lat": 40.834285,
    "lon": -73.851469
  },
  {
    "id": "BX_100243",
    "name": "\"WESTCHESTER AV/OLMSTEAD AV\"",
    "lat": 40.834011,
    "lon": -73.854454
  },
  {
    "id": "BX_100244",
    "name": "\"WESTCHESTER AV/PUGSLEY AV\"",
    "lat": 40.833634,
    "lon": -73.857595
  },
  {
    "id": "BX_100245",
    "name": "\"HUGH GRANT CIRCLE/CROSS BRONX EXPWY SERVICE RD\"",
    "lat": 40.833499,
    "lon": -73.861391
  },
  {
    "id": "BX_100246",
    "name": "\"WESTCHESTER AV/WHITE PLAINS RD\"",
    "lat": 40.833124,
    "lon": -73.862536
  },
  {
    "id": "BX_100249",
    "name": "\"WESTCHESTER AV/SAINT LAWRENCE AV\"",
    "lat": 40.83174,
    "lon": -73.867069
  },
  {
    "id": "BX_100253",
    "name": "\"WESTCHESTER AV/MORRISON AV\"",
    "lat": 40.829621,
    "lon": -73.874493
  },
  {
    "id": "BX_100254",
    "name": "\"WESTCHESTER AV/MANOR AV\"",
    "lat": 40.829099,
    "lon": -73.876293
  },
  {
    "id": "BX_100256",
    "name": "\"WESTCHESTER AV/ELDER AV\"",
    "lat": 40.828652,
    "lon": -73.879059
  },
  {
    "id": "BX_100259",
    "name": "\"WESTCHESTER AV/HOME ST\"",
    "lat": 40.827447,
    "lon": -73.886598
  },
  {
    "id": "BX_100260",
    "name": "\"WESTCHESTER AV/HOE AV\"",
    "lat": 40.825369,
    "lon": -73.890606
  },
  {
    "id": "BX_100261",
    "name": "\"WESTCHESTER AV/SIMPSON ST\"",
    "lat": 40.82431,
    "lon": -73.892769
  },
  {
    "id": "BX_100264",
    "name": "\"WESTCHESTER AV/E 163 ST\"",
    "lat": 40.821181,
    "lon": -73.898798
  },
  {
    "id": "BX_100265",
    "name": "\"WESTCHESTER AV/PROSPECT AV\"",
    "lat": 40.819923,
    "lon": -73.901226
  },
  {
    "id": "BX_100267",
    "name": "\"WESTCHESTER AV/TINTON AV\"",
    "lat": 40.818205,
    "lon": -73.904801
  },
  {
    "id": "BX_100268",
    "name": "\"WESTCHESTER AV/JACKSON AV\"",
    "lat": 40.816511,
    "lon": -73.907907
  },
  {
    "id": "BX_100270",
    "name": "\"WESTCHESTER AV/SAINT ANN'S AV\"",
    "lat": 40.816075,
    "lon": -73.91173
  },
  {
    "id": "BX_100273",
    "name": "\"SOUTHERN BLVD/WESTCHESTER AV\"",
    "lat": 40.82437,
    "lon": -73.891944
  },
  {
    "id": "BX_100276",
    "name": "\"STORY AV/COLGATE AV\"",
    "lat": 40.82128,
    "lon": -73.879856
  },
  {
    "id": "BX_100277",
    "name": "\"STORY AV/ELDER AV\"",
    "lat": 40.821595,
    "lon": -73.877734
  },
  {
    "id": "BX_100278",
    "name": "\"STORY AV/BOYNTON AV\"",
    "lat": 40.821789,
    "lon": -73.876062
  },
  {
    "id": "BX_100279",
    "name": "\"STORY AV/MORRISON AV\"",
    "lat": 40.822192,
    "lon": -73.873098
  },
  {
    "id": "BX_100280",
    "name": "\"STORY AV/METCALF AV\"",
    "lat": 40.822549,
    "lon": -73.870532
  },
  {
    "id": "BX_100281",
    "name": "\"STORY AV/NOBLE AV\"",
    "lat": 40.82284,
    "lon": -73.868299
  },
  {
    "id": "BX_100282",
    "name": "\"STORY AV/ROSEDALE AV\"",
    "lat": 40.823091,
    "lon": -73.866506
  },
  {
    "id": "BX_100284",
    "name": "\"STORY AV/THIERIOT AV\"",
    "lat": 40.823673,
    "lon": -73.862104
  },
  {
    "id": "BX_100294",
    "name": "\"BRUCKNER BLVD/EAST TREMONT AV\"",
    "lat": 40.833162,
    "lon": -73.827592
  },
  {
    "id": "BX_100295",
    "name": "\"BRUCKNER BLVD/LOGAN AV\"",
    "lat": 40.834136,
    "lon": -73.825631
  },
  {
    "id": "BX_100296",
    "name": "\"BRUCKNER BLVD/KEARNEY AV\"",
    "lat": 40.83914,
    "lon": -73.824851
  },
  {
    "id": "BX_100298",
    "name": "\"MACDONOUGH PL/COUNTRY CLUB RD\"",
    "lat": 40.842501,
    "lon": -73.82511
  },
  {
    "id": "BX_100299",
    "name": "\"BRUCKNER BLVD/MIDDLETOWN RD\"",
    "lat": 40.845754,
    "lon": -73.825391
  },
  {
    "id": "BX_100304",
    "name": "\"PELHAM PKWY/EASTCHESTER RD\"",
    "lat": 40.857836,
    "lon": -73.844305
  },
  {
    "id": "BX_100305",
    "name": "\"PELHAM PKWY/SEYMOUR AV\"",
    "lat": 40.85806,
    "lon": -73.846615
  },
  {
    "id": "BX_100306",
    "name": "\"PELHAM PKWY/THROOP AV\"",
    "lat": 40.858026,
    "lon": -73.851524
  },
  {
    "id": "BX_100317",
    "name": "\"PELHAM PKWY/EASTCHESTER RD\"",
    "lat": 40.857271,
    "lon": -73.843935
  },
  {
    "id": "BX_100318",
    "name": "\"PELHAM PKWY/STILLWELL AV\"",
    "lat": 40.856475,
    "lon": -73.838814
  },
  {
    "id": "BX_100319",
    "name": "\"PELHAM PKWY/ST PAUL AV\"",
    "lat": 40.855472,
    "lon": -73.830704
  },
  {
    "id": "BX_100322",
    "name": "\"BRUCKNER BLVD/WILLOW LA\"",
    "lat": 40.848936,
    "lon": -73.828039
  },
  {
    "id": "BX_100323",
    "name": "\"BRUCKNER BLVD/ROBERTS AV\"",
    "lat": 40.846613,
    "lon": -73.826719
  },
  {
    "id": "BX_100324",
    "name": "\"BRUCKNER BLVD/MIDDLETOWN RD\"",
    "lat": 40.844904,
    "lon": -73.826192
  },
  {
    "id": "BX_100325",
    "name": "\"BRUCKNER BLVD/JARVIS AV\"",
    "lat": 40.843134,
    "lon": -73.826298
  },
  {
    "id": "BX_100326",
    "name": "\"BRUCKNER BLVD/CODDINGTON AV\"",
    "lat": 40.841438,
    "lon": -73.826168
  },
  {
    "id": "BX_100328",
    "name": "\"BRUCKNER BLVD/BAISLEY AV\"",
    "lat": 40.837136,
    "lon": -73.825919
  },
  {
    "id": "BX_100329",
    "name": "\"BRUCKNER BLVD/CROSBY AV\"",
    "lat": 40.834499,
    "lon": -73.826158
  },
  {
    "id": "BX_100330",
    "name": "\"BRUCKNER BLVD/EAST TREMONT AV\"",
    "lat": 40.832977,
    "lon": -73.829074
  },
  {
    "id": "BX_100331",
    "name": "\"BRUCKNER BLVD/GIFFORD AV\"",
    "lat": 40.831307,
    "lon": -73.831724
  },
  {
    "id": "BX_100337",
    "name": "\"STORY AV/BOLTON AV\"",
    "lat": 40.824164,
    "lon": -73.859675
  },
  {
    "id": "BX_100339",
    "name": "\"STORY AV/TAYLOR AV\"",
    "lat": 40.823533,
    "lon": -73.864002
  },
  {
    "id": "BX_100340",
    "name": "\"STORY AV/ROSEDALE AV\"",
    "lat": 40.823152,
    "lon": -73.866918
  },
  {
    "id": "BX_100341",
    "name": "\"STORY AV/SOUNDVIEW AV\"",
    "lat": 40.822974,
    "lon": -73.868066
  },
  {
    "id": "BX_100342",
    "name": "\"STORY AV/FTELEY AV\"",
    "lat": 40.822659,
    "lon": -73.870545
  },
  {
    "id": "BX_100343",
    "name": "\"STORY AV/MORRISON AV\"",
    "lat": 40.822262,
    "lon": -73.873406
  },
  {
    "id": "BX_100344",
    "name": "\"STORY AV/BOYNTON AV\"",
    "lat": 40.821762,
    "lon": -73.877189
  },
  {
    "id": "BX_100347",
    "name": "\"STORY AV/BRONX RIVER AV\"",
    "lat": 40.821109,
    "lon": -73.882065
  },
  {
    "id": "BX_100363",
    "name": "\"E 161 ST/RIVER AV\"",
    "lat": 40.827792,
    "lon": -73.926096
  },
  {
    "id": "BX_100366",
    "name": "\"E 161 ST/CONCOURSE VILLAGE EAST\"",
    "lat": 40.825343,
    "lon": -73.918099
  },
  {
    "id": "BX_100368",
    "name": "\"E 161 ST/MELROSE AV\"",
    "lat": 40.824041,
    "lon": -73.913643
  },
  {
    "id": "BX_100369",
    "name": "\"ELTON AV/E 161 ST\"",
    "lat": 40.82372,
    "lon": -73.911709
  },
  {
    "id": "BX_100370",
    "name": "\"E 163 ST/3 AV\"",
    "lat": 40.824064,
    "lon": -73.908925
  },
  {
    "id": "BX_100373",
    "name": "\"E 163 ST/TINTON AV\"",
    "lat": 40.822518,
    "lon": -73.902747
  },
  {
    "id": "BX_100374",
    "name": "\"E 163 ST/PROSPECT AV\"",
    "lat": 40.821893,
    "lon": -73.900189
  },
  {
    "id": "BX_100376",
    "name": "\"E 163 ST/WESTCHESTER AV\"",
    "lat": 40.820906,
    "lon": -73.898496
  },
  {
    "id": "BX_100379",
    "name": "\"E 163 ST/FOX ST\"",
    "lat": 40.82091,
    "lon": -73.893001
  },
  {
    "id": "BX_100382",
    "name": "\"HUNTS POINT AV/SENECA AV\"",
    "lat": 40.819273,
    "lon": -73.889683
  },
  {
    "id": "BX_100384",
    "name": "\"HUNTS POINT AV/COSTER ST\"",
    "lat": 40.81607,
    "lon": -73.887579
  },
  {
    "id": "BX_100385",
    "name": "\"SPOFFORD AV/BRYANT AV\"",
    "lat": 40.814586,
    "lon": -73.885118
  },
  {
    "id": "BX_100415",
    "name": "\"HUNTS POINT AV/SPOFFORD AV\"",
    "lat": 40.814653,
    "lon": -73.885892
  },
  {
    "id": "BX_100416",
    "name": "\"HUNTS POINT AV/FAILE ST\"",
    "lat": 40.815915,
    "lon": -73.887208
  },
  {
    "id": "BX_100419",
    "name": "\"HUNTS POINT AV/SENECA AV\"",
    "lat": 40.818922,
    "lon": -73.889324
  },
  {
    "id": "BX_100424",
    "name": "\"E 163 ST/WESTCHESTER AV\"",
    "lat": 40.820972,
    "lon": -73.898853
  },
  {
    "id": "BX_100425",
    "name": "\"E 163 ST/PROSPECT AV\"",
    "lat": 40.822313,
    "lon": -73.90107
  },
  {
    "id": "BX_100428",
    "name": "\"E 163 ST/TRINITY AV\"",
    "lat": 40.823544,
    "lon": -73.906235
  },
  {
    "id": "BX_100431",
    "name": "\"E 161 ST/MELROSE AV\"",
    "lat": 40.824404,
    "lon": -73.914216
  },
  {
    "id": "BX_100449",
    "name": "\"BROADWAY/W 225 ST\"",
    "lat": 40.8749,
    "lon": -73.909201
  },
  {
    "id": "BX_100450",
    "name": "\"BROADWAY/W 228 ST\"",
    "lat": 40.875698,
    "lon": -73.908194
  },
  {
    "id": "BX_100451",
    "name": "\"BROADWAY/EXTERIOR ST\"",
    "lat": 40.876732,
    "lon": -73.90643
  },
  {
    "id": "BX_100459",
    "name": "\"HENRY HUDSON PKWY EAST/W 246 ST\"",
    "lat": 40.893961,
    "lon": -73.907908
  },
  {
    "id": "BX_100460",
    "name": "\"HENRY HUDSON PKWY EAST /W 250 ST\"",
    "lat": 40.897735,
    "lon": -73.907574
  },
  {
    "id": "BX_100461",
    "name": "\"HENRY HUDSON PKWY EAST/W 252 ST\"",
    "lat": 40.899288,
    "lon": -73.906659
  },
  {
    "id": "BX_100462",
    "name": "\"RIVERDALE AV/W 254 ST\"",
    "lat": 40.901963,
    "lon": -73.905859
  },
  {
    "id": "BX_100463",
    "name": "\"RIVERDALE AV/W 256 ST\"",
    "lat": 40.904309,
    "lon": -73.904842
  },
  {
    "id": "BX_100464",
    "name": "\"RIVERDALE AV/W 259 ST\"",
    "lat": 40.90714,
    "lon": -73.903907
  },
  {
    "id": "BX_100465",
    "name": "\"RIVERDALE AV/W 260 ST\"",
    "lat": 40.908712,
    "lon": -73.903544
  },
  {
    "id": "BX_100466",
    "name": "\"RIVERDALE AV/W 261 ST\"",
    "lat": 40.910398,
    "lon": -73.903027
  },
  {
    "id": "BX_100469",
    "name": "\"RIVERDALE AV/W 261 ST\"",
    "lat": 40.910225,
    "lon": -73.903269
  },
  {
    "id": "BX_100470",
    "name": "\"RIVERDALE AV/W 260 ST\"",
    "lat": 40.908491,
    "lon": -73.903786
  },
  {
    "id": "BX_100471",
    "name": "\"RIVERDALE AV/W 259 ST\"",
    "lat": 40.906534,
    "lon": -73.904313
  },
  {
    "id": "BX_100472",
    "name": "\"RIVERDALE AV/W 256 ST\"",
    "lat": 40.903917,
    "lon": -73.905204
  },
  {
    "id": "BX_100473",
    "name": "\"RIVERDALE AV/W 254 ST\"",
    "lat": 40.901894,
    "lon": -73.906064
  },
  {
    "id": "BX_100474",
    "name": "\"HENRY HUDSON PKWY WEST/W 252 ST\"",
    "lat": 40.899008,
    "lon": -73.90778
  },
  {
    "id": "BX_100475",
    "name": "\"HENRY HUDSON PKWY WEST/W 249 ST\"",
    "lat": 40.897,
    "lon": -73.908291
  },
  {
    "id": "BX_100482",
    "name": "\"KINGSBRIDGE AV/W 230 ST\"",
    "lat": 40.878459,
    "lon": -73.907984
  },
  {
    "id": "BX_100483",
    "name": "\"W 230 ST/BROADWAY\"",
    "lat": 40.876768,
    "lon": -73.906803
  },
  {
    "id": "BX_100484",
    "name": "\"BROADWAY/W 228 ST\"",
    "lat": 40.875752,
    "lon": -73.90825
  },
  {
    "id": "BX_100485",
    "name": "\"BROADWAY/W 225 ST\"",
    "lat": 40.87436,
    "lon": -73.91019
  },
  {
    "id": "BX_100492",
    "name": "\"WILLIAMSBRIDGE RD/EASTCHESTER RD\"",
    "lat": 40.844441,
    "lon": -73.846043
  },
  {
    "id": "BX_100493",
    "name": "\"WILLIAMSBRIDGE RD/PIERCE AV\"",
    "lat": 40.847385,
    "lon": -73.84917
  },
  {
    "id": "BX_100494",
    "name": "\"WILLIAMSBRIDGE RD/MORRIS PARK AV\"",
    "lat": 40.850225,
    "lon": -73.851173
  },
  {
    "id": "BX_100495",
    "name": "\"WILLIAMSBRIDGE RD/RHINELANDER AV\"",
    "lat": 40.852588,
    "lon": -73.853022
  },
  {
    "id": "BX_100496",
    "name": "\"WILLIAMSBRIDGE RD/NEILL AV\"",
    "lat": 40.854531,
    "lon": -73.854532
  },
  {
    "id": "BX_100499",
    "name": "\"WILLIAMSBRIDGE RD/ASTOR AV\"",
    "lat": 40.859582,
    "lon": -73.857225
  },
  {
    "id": "BX_100500",
    "name": "\"WILLIAMSBRIDGE RD/MACE AV\"",
    "lat": 40.862923,
    "lon": -73.857891
  },
  {
    "id": "BX_100501",
    "name": "\"WILLIAMSBRIDGE RD/ALLERTON AV\"",
    "lat": 40.865362,
    "lon": -73.859418
  },
  {
    "id": "BX_100502",
    "name": "\"WILLIAMSBRIDGE RD/BOSTON RD\"",
    "lat": 40.867063,
    "lon": -73.860948
  },
  {
    "id": "BX_100504",
    "name": "\"BRONXWOOD AV/ADEE AV\"",
    "lat": 40.869467,
    "lon": -73.861311
  },
  {
    "id": "BX_100505",
    "name": "\"BRONXWOOD AV/BURKE AV\"",
    "lat": 40.87168,
    "lon": -73.861249
  },
  {
    "id": "BX_100506",
    "name": "\"BRONXWOOD AV/DUNCAN ST\"",
    "lat": 40.873431,
    "lon": -73.861184
  },
  {
    "id": "BX_100508",
    "name": "\"BRONXWOOD AV/TILDEN ST\"",
    "lat": 40.876747,
    "lon": -73.859683
  },
  {
    "id": "BX_100510",
    "name": "\"BRONXWOOD AV/E 216 ST\"",
    "lat": 40.879904,
    "lon": -73.857941
  },
  {
    "id": "BX_100511",
    "name": "\"BRONXWOOD AV/E 218 ST\"",
    "lat": 40.881303,
    "lon": -73.857168
  },
  {
    "id": "BX_100513",
    "name": "\"BRONXWOOD AV/E 222 ST\"",
    "lat": 40.88415,
    "lon": -73.855599
  },
  {
    "id": "BX_100515",
    "name": "\"E 226 ST/BRONXWOOD AV\"",
    "lat": 40.886863,
    "lon": -73.854718
  },
  {
    "id": "BX_100517",
    "name": "\"E 226 ST/WHITE PLAINS RD\"",
    "lat": 40.888497,
    "lon": -73.859879
  },
  {
    "id": "BX_100522",
    "name": "\"BRONXWOOD AV/E 222 ST\"",
    "lat": 40.883561,
    "lon": -73.85619
  },
  {
    "id": "BX_100524",
    "name": "\"BRONXWOOD AV/E 218 ST\"",
    "lat": 40.880774,
    "lon": -73.857729
  },
  {
    "id": "BX_100525",
    "name": "\"BRONXWOOD AV/E 216 ST\"",
    "lat": 40.87937,
    "lon": -73.858503
  },
  {
    "id": "BX_100527",
    "name": "\"BRONXWOOD AV/TILDEN ST\"",
    "lat": 40.876534,
    "lon": -73.860078
  },
  {
    "id": "BX_100528",
    "name": "\"BRONXWOOD AV/EAST GUN HILL RD\"",
    "lat": 40.875661,
    "lon": -73.860554
  },
  {
    "id": "BX_100529",
    "name": "\"BRONXWOOD AV/BARTHOLDI ST\"",
    "lat": 40.873343,
    "lon": -73.861452
  },
  {
    "id": "BX_100530",
    "name": "\"BRONXWOOD AV/BURKE AV\"",
    "lat": 40.870985,
    "lon": -73.861511
  },
  {
    "id": "BX_100531",
    "name": "\"BRONXWOOD AV/ADEE AV\"",
    "lat": 40.869254,
    "lon": -73.861565
  },
  {
    "id": "BX_100533",
    "name": "\"WILLIAMSBRIDGE RD/BOSTON RD\"",
    "lat": 40.86678,
    "lon": -73.860948
  },
  {
    "id": "BX_100534",
    "name": "\"WILLIAMSBRIDGE RD/ALLERTON AV\"",
    "lat": 40.865653,
    "lon": -73.859938
  },
  {
    "id": "BX_100535",
    "name": "\"WILLIAMSBRIDGE RD/MACE AV\"",
    "lat": 40.862717,
    "lon": -73.858017
  },
  {
    "id": "BX_100536",
    "name": "\"WILLIAMSBRIDGE RD/ASTOR AV\"",
    "lat": 40.85937,
    "lon": -73.857414
  },
  {
    "id": "BX_100537",
    "name": "\"WILLIAMSBRIDGE RD/PELHAM PKWY NORTH\"",
    "lat": 40.85767,
    "lon": -73.856517
  },
  {
    "id": "BX_100538",
    "name": "\"WILLIAMSBRIDGE RD/PELHAM PKWY SOUTH\"",
    "lat": 40.856632,
    "lon": -73.856086
  },
  {
    "id": "BX_100539",
    "name": "\"WILLIAMSBRIDGE RD/NEILL AV\"",
    "lat": 40.853858,
    "lon": -73.854288
  },
  {
    "id": "BX_100540",
    "name": "\"WILLIAMSBRIDGE RD/RHINELANDER AV\"",
    "lat": 40.852119,
    "lon": -73.852911
  },
  {
    "id": "BX_100541",
    "name": "\"WILLIAMSBRIDGE RD/MORRIS PARK AV\"",
    "lat": 40.850349,
    "lon": -73.851498
  },
  {
    "id": "BX_100542",
    "name": "\"WILLIAMSBRIDGE RD/PIERCE AV\"",
    "lat": 40.84691,
    "lon": -73.849059
  },
  {
    "id": "BX_100543",
    "name": "\"WILLIAMSBRIDGE RD/SILVER ST\"",
    "lat": 40.844076,
    "lon": -73.845989
  },
  {
    "id": "BX_100558",
    "name": "\"E 180 ST/BOSTON RD\"",
    "lat": 40.842681,
    "lon": -73.878252
  },
  {
    "id": "BX_100559",
    "name": "\"E 180 ST/DALY AV\"",
    "lat": 40.844777,
    "lon": -73.881784
  },
  {
    "id": "BX_100560",
    "name": "\"E 180 ST/CROTONA PKWY\"",
    "lat": 40.845819,
    "lon": -73.883961
  },
  {
    "id": "BX_100561",
    "name": "\"SOUTHERN BLVD/BRONX PARK SOUTH\"",
    "lat": 40.847688,
    "lon": -73.883127
  },
  {
    "id": "BX_100562",
    "name": "\"SOUTHERN BLVD/E 183 ST\"",
    "lat": 40.851175,
    "lon": -73.88217
  },
  {
    "id": "BX_100563",
    "name": "\"SOUTHERN BLVD/E 187 ST\"",
    "lat": 40.853214,
    "lon": -73.881577
  },
  {
    "id": "BX_100564",
    "name": "\"SOUTHERN BLVD/E 189 ST\"",
    "lat": 40.856408,
    "lon": -73.880682
  },
  {
    "id": "BX_100565",
    "name": "\"EAST FORDHAM RD/CAMBERLENG AV\"",
    "lat": 40.858134,
    "lon": -73.882985
  },
  {
    "id": "BX_100567",
    "name": "\"EASTFORDHAM RD/BATHGATE AV\"",
    "lat": 40.859851,
    "lon": -73.887646
  },
  {
    "id": "BX_100571",
    "name": "\"EAST KINGSBRIDGE RD/E 192 ST\"",
    "lat": 40.863823,
    "lon": -73.894194
  },
  {
    "id": "BX_100573",
    "name": "\"EAST KINGSBRIDGE RD/MORRIS AV\"",
    "lat": 40.867294,
    "lon": -73.896876
  },
  {
    "id": "BX_100576",
    "name": "\"WEST KINGSBRIDGE RD/KINGSBRIDGE TERR\"",
    "lat": 40.870345,
    "lon": -73.904246
  },
  {
    "id": "BX_100579",
    "name": "\"W 225 ST/BROADWAY\"",
    "lat": 40.874486,
    "lon": -73.909403
  },
  {
    "id": "BX_100582",
    "name": "\"BROADWAY/W 231 ST\"",
    "lat": 40.878788,
    "lon": -73.904848
  },
  {
    "id": "BX_100583",
    "name": "\"BROADWAY/W 234 ST\"",
    "lat": 40.881534,
    "lon": -73.90279
  },
  {
    "id": "BX_100585",
    "name": "\"BROADWAY/W 238 ST\"",
    "lat": 40.884966,
    "lon": -73.900634
  },
  {
    "id": "BX_100586",
    "name": "\"BROADWAY/VAN CORTLANDT PARK SOUTH\"",
    "lat": 40.886376,
    "lon": -73.899709
  },
  {
    "id": "BX_100587",
    "name": "\"BROADWAY/W 242 ST\"",
    "lat": 40.889761,
    "lon": -73.897936
  },
  {
    "id": "BX_100588",
    "name": "\"BROADWAY/W 246 ST\"",
    "lat": 40.892052,
    "lon": -73.896966
  },
  {
    "id": "BX_100589",
    "name": "\"BROADWAY/W 251 ST\"",
    "lat": 40.895684,
    "lon": -73.896637
  },
  {
    "id": "BX_100590",
    "name": "\"BROADWAY/LAKE VIEW PL\"",
    "lat": 40.898497,
    "lon": -73.896946
  },
  {
    "id": "BX_100591",
    "name": "\"BROADWAY/W 254 ST\"",
    "lat": 40.901357,
    "lon": -73.89667
  },
  {
    "id": "BX_100592",
    "name": "\"BROADWAY/MOSHOLU AV\"",
    "lat": 40.904201,
    "lon": -73.896336
  },
  {
    "id": "BX_100594",
    "name": "\"BROADWAY/W 260 ST\"",
    "lat": 40.907417,
    "lon": -73.896407
  },
  {
    "id": "BX_100595",
    "name": "\"BROADWAY/W 262 ST\"",
    "lat": 40.910081,
    "lon": -73.896495
  },
  {
    "id": "BX_100606",
    "name": "\"RIVERDALE AV/W 263 ST\"",
    "lat": 40.912377,
    "lon": -73.902533
  },
  {
    "id": "BX_100607",
    "name": "\"RIVERDALE AV/W 263 ST\"",
    "lat": 40.912363,
    "lon": -73.902699
  },
  {
    "id": "BX_100608",
    "name": "\"BROADWAY/W 262 ST\"",
    "lat": 40.910104,
    "lon": -73.89673
  },
  {
    "id": "BX_100609",
    "name": "\"BROADWAY/W 260 ST\"",
    "lat": 40.907175,
    "lon": -73.896664
  },
  {
    "id": "BX_100610",
    "name": "\"BROADWAY/MOSHOLU AV\"",
    "lat": 40.904244,
    "lon": -73.896539
  },
  {
    "id": "BX_100612",
    "name": "\"BROADWAY/W 254 ST\"",
    "lat": 40.901169,
    "lon": -73.896915
  },
  {
    "id": "BX_100613",
    "name": "\"BROADWAY/LAKE VIEW PL\"",
    "lat": 40.898665,
    "lon": -73.897242
  },
  {
    "id": "BX_100614",
    "name": "\"BROADWAY/W 251 ST\"",
    "lat": 40.895876,
    "lon": -73.896856
  },
  {
    "id": "BX_100615",
    "name": "\"BROADWAY/W 246 ST\"",
    "lat": 40.892236,
    "lon": -73.897158
  },
  {
    "id": "BX_100616",
    "name": "\"BROADWAY/W 242 ST\"",
    "lat": 40.890027,
    "lon": -73.898243
  },
  {
    "id": "BX_100617",
    "name": "\"BROADWAY/W 240 ST\"",
    "lat": 40.886686,
    "lon": -73.899919
  },
  {
    "id": "BX_100618",
    "name": "\"BROADWAY/W 238 ST\"",
    "lat": 40.885241,
    "lon": -73.900666
  },
  {
    "id": "BX_100620",
    "name": "\"BROADWAY/W 234 ST\"",
    "lat": 40.881798,
    "lon": -73.902826
  },
  {
    "id": "BX_100621",
    "name": "\"BROADWAY/W 231 ST\"",
    "lat": 40.87906,
    "lon": -73.904768
  },
  {
    "id": "BX_100624",
    "name": "\"W 225 ST/BROADWAY\"",
    "lat": 40.874274,
    "lon": -73.909375
  },
  {
    "id": "BX_100626",
    "name": "\"WEST KINGSBRIDGE RD/HEATH AV\"",
    "lat": 40.872591,
    "lon": -73.904832
  },
  {
    "id": "BX_100627",
    "name": "\"WEST KINGSBRIDGE RD/KINGSBRIDGE TERR\"",
    "lat": 40.87042,
    "lon": -73.904578
  },
  {
    "id": "BX_100629",
    "name": "\"WEST KINGSBRIDGE RD/UNIVERSITY AV\"",
    "lat": 40.868262,
    "lon": -73.901233
  },
  {
    "id": "BX_100630",
    "name": "\"WEST KINGSBRIDGE RD/JEROME AV\"",
    "lat": 40.86743,
    "lon": -73.89767
  },
  {
    "id": "BX_100631",
    "name": "\"EAST KINGSBRIDGE RD/GRAND CONCOURSE\"",
    "lat": 40.86585,
    "lon": -73.894274
  },
  {
    "id": "BX_100632",
    "name": "\"EAST KINGSBRIDGE RD/E 192 ST\"",
    "lat": 40.863722,
    "lon": -73.894364
  },
  {
    "id": "BX_100633",
    "name": "\"EAST KINGSBRIDGE RD/E FORDHAM RD\"",
    "lat": 40.862089,
    "lon": -73.893936
  },
  {
    "id": "BX_100636",
    "name": "\"EAST FORDHAM RD/BATHGATE AV\"",
    "lat": 40.859601,
    "lon": -73.887654
  },
  {
    "id": "BX_100640",
    "name": "\"SOUTHERN BLVD/EAST FORDHAM RD\"",
    "lat": 40.856252,
    "lon": -73.880972
  },
  {
    "id": "BX_100641",
    "name": "\"SOUTHERN BLVD/E 187 ST\"",
    "lat": 40.853173,
    "lon": -73.881852
  },
  {
    "id": "BX_100642",
    "name": "\"SOUTHERN BLVD/E 183 ST\"",
    "lat": 40.850918,
    "lon": -73.882488
  },
  {
    "id": "BX_100643",
    "name": "\"SOUTHERN BLVD/E 182 ST\"",
    "lat": 40.847976,
    "lon": -73.883339
  },
  {
    "id": "BX_100644",
    "name": "\"E 180 ST/MOHEGAN AV\"",
    "lat": 40.845561,
    "lon": -73.883747
  },
  {
    "id": "BX_100645",
    "name": "\"E 180 ST/DALY AV\"",
    "lat": 40.844403,
    "lon": -73.881557
  },
  {
    "id": "BX_100646",
    "name": "\"BOSTON RD/E 180 ST\"",
    "lat": 40.842561,
    "lon": -73.878332
  },
  {
    "id": "BX_100647",
    "name": "\"BOSTON RD/E 178 ST\"",
    "lat": 40.840915,
    "lon": -73.879477
  },
  {
    "id": "BX_100652",
    "name": "\"BAINBRIDGE AV/RESERVOIR OVAL E\"",
    "lat": 40.877311,
    "lon": -73.879677
  },
  {
    "id": "BX_100654",
    "name": "\"EAST GUN HILL RD/BAINBRIDGE AV\"",
    "lat": 40.881347,
    "lon": -73.878833
  },
  {
    "id": "BX_100655",
    "name": "\"EAST GUN HILL RD/DE KALB AV\"",
    "lat": 40.882485,
    "lon": -73.8807
  },
  {
    "id": "BX_100657",
    "name": "\"JEROME AV/E 205 ST\"",
    "lat": 40.876457,
    "lon": -73.888096
  },
  {
    "id": "BX_100675",
    "name": "\"KAPPOCK ST/JOHNSON AV\"",
    "lat": 40.877566,
    "lon": -73.917738
  },
  {
    "id": "BX_100676",
    "name": "\"KAPPOCK ST/KNOLLS CRES\"",
    "lat": 40.879473,
    "lon": -73.916643
  },
  {
    "id": "BX_100677",
    "name": "\"HENRY HUDSON PKWY EAST/W 227 ST\"",
    "lat": 40.88118,
    "lon": -73.917093
  },
  {
    "id": "BX_100678",
    "name": "\"HENRY HUDSON PKWY EAST/W 232 ST\"",
    "lat": 40.884434,
    "lon": -73.914569
  },
  {
    "id": "BX_100679",
    "name": "\"HENRY HUDSON PKWY EAST/W 235 ST\"",
    "lat": 40.886017,
    "lon": -73.912559
  },
  {
    "id": "BX_100680",
    "name": "\"HENRY HUDSON PKWY EAST/W 238 ST\"",
    "lat": 40.888566,
    "lon": -73.909655
  },
  {
    "id": "BX_100700",
    "name": "\"HENRY HUDSON PKWY WEST/W 239 ST\"",
    "lat": 40.889606,
    "lon": -73.90901
  },
  {
    "id": "BX_100701",
    "name": "\"HENRY HUDSON PKWY WEST/W 237 ST\"",
    "lat": 40.887849,
    "lon": -73.91192
  },
  {
    "id": "BX_100702",
    "name": "\"HENRY HUDSON PKWY WEST/W 236 ST\"",
    "lat": 40.886798,
    "lon": -73.912533
  },
  {
    "id": "BX_100703",
    "name": "\"HENRY HUDSON PKWY WEST/W 232 ST\"",
    "lat": 40.884346,
    "lon": -73.915205
  },
  {
    "id": "BX_100704",
    "name": "\"HENRY HUDSON PKWY WEST/W 227 ST\"",
    "lat": 40.88157,
    "lon": -73.917346
  },
  {
    "id": "BX_100705",
    "name": "\"HENRY HUDSON PKWY WEST/INDEPENDENCE AV\"",
    "lat": 40.880804,
    "lon": -73.91895
  },
  {
    "id": "BX_100706",
    "name": "\"KAPPOCK ST/KNOLLS CRES\"",
    "lat": 40.87909,
    "lon": -73.916789
  },
  {
    "id": "BX_100707",
    "name": "\"KAPPOCK ST/JOHNSON AV\"",
    "lat": 40.877396,
    "lon": -73.918013
  },
  {
    "id": "BX_100723",
    "name": "\"W 205 ST/PAUL AV\"",
    "lat": 40.876999,
    "lon": -73.889855
  },
  {
    "id": "BX_100726",
    "name": "\"JEROME AV/E 205 ST\"",
    "lat": 40.875794,
    "lon": -73.888278
  },
  {
    "id": "BX_100727",
    "name": "\"JEROME AV/EAST MOSHOLU PKWY NORTH\"",
    "lat": 40.880473,
    "lon": -73.88375
  },
  {
    "id": "BX_100729",
    "name": "\"BAINBRIDGE AV/E GUN HILL RD\"",
    "lat": 40.880572,
    "lon": -73.878779
  },
  {
    "id": "BX_100730",
    "name": "\"BAINBRIDGE AV/E 210 ST\"",
    "lat": 40.879332,
    "lon": -73.879113
  },
  {
    "id": "BX_100731",
    "name": "\"BAINBRIDGE AV/VAN CORTLANDT AV EAST\"",
    "lat": 40.87709,
    "lon": -73.879774
  },
  {
    "id": "BX_100737",
    "name": "\"OGDEN AV/UNIVERSITY AV\"",
    "lat": 40.843611,
    "lon": -73.923774
  },
  {
    "id": "BX_100740",
    "name": "\"OGDEN AV/W 169 ST\"",
    "lat": 40.840238,
    "lon": -73.925301
  },
  {
    "id": "BX_100742",
    "name": "\"WOODYCREST AV/W 168 ST\"",
    "lat": 40.838422,
    "lon": -73.923294
  },
  {
    "id": "BX_100743",
    "name": "\"SHAKESPEARE AV/W 169 ST\"",
    "lat": 40.839536,
    "lon": -73.922454
  },
  {
    "id": "BX_100744",
    "name": "\"W 170 ST/EDWARD L GRANT HWY\"",
    "lat": 40.840265,
    "lon": -73.921646
  },
  {
    "id": "BX_100745",
    "name": "\"W 170 ST/JEROME AV\"",
    "lat": 40.84021,
    "lon": -73.917817
  },
  {
    "id": "BX_100749",
    "name": "\"E 170 ST/CLAY AV\"",
    "lat": 40.837093,
    "lon": -73.908229
  },
  {
    "id": "BX_100750",
    "name": "\"CLAY AV/E 171 ST\"",
    "lat": 40.838632,
    "lon": -73.906391
  },
  {
    "id": "BX_100751",
    "name": "\"CLAREMONT PKWY/WEBSTER AV\"",
    "lat": 40.839509,
    "lon": -73.904973
  },
  {
    "id": "BX_100752",
    "name": "\"CLAREMONT PKWY/WASHINGTON AV\"",
    "lat": 40.838615,
    "lon": -73.902322
  },
  {
    "id": "BX_100753",
    "name": "\"CLAREMONT PKWY/3 AV\"",
    "lat": 40.83809,
    "lon": -73.901107
  },
  {
    "id": "BX_100754",
    "name": "\"CLAREMONT PKWY/CROTONA AV\"",
    "lat": 40.836376,
    "lon": -73.898033
  },
  {
    "id": "BX_100762",
    "name": "\"CLAREMONT PKWY/CROTONA PARK EAST\"",
    "lat": 40.835389,
    "lon": -73.895119
  },
  {
    "id": "BX_100763",
    "name": "\"CLAREMONT PKWY/CROTONA AV\"",
    "lat": 40.83654,
    "lon": -73.897614
  },
  {
    "id": "BX_100764",
    "name": "\"CLAREMONT PKWY/3 AV\"",
    "lat": 40.83827,
    "lon": -73.901294
  },
  {
    "id": "BX_100765",
    "name": "\"CLAREMONT PKWY/WASHINGTON AV\"",
    "lat": 40.839093,
    "lon": -73.90299
  },
  {
    "id": "BX_100766",
    "name": "\"CLAREMONT PKWY/WEBSTER AV\"",
    "lat": 40.839795,
    "lon": -73.905146
  },
  {
    "id": "BX_100768",
    "name": "\"E 170 ST/TELLER AV\"",
    "lat": 40.836992,
    "lon": -73.909096
  },
  {
    "id": "BX_100769",
    "name": "\"E 170 ST/COLLEGE AV\"",
    "lat": 40.837677,
    "lon": -73.910947
  },
  {
    "id": "BX_100772",
    "name": "\"E 170 ST/JEROME AV\"",
    "lat": 40.840227,
    "lon": -73.917484
  },
  {
    "id": "BX_100775",
    "name": "\"SHAKESPEARE AV/W 169 ST\"",
    "lat": 40.839023,
    "lon": -73.922795
  },
  {
    "id": "BX_100779",
    "name": "\"PLIMPTON AV/EDWARD L GRANT HWY\"",
    "lat": 40.842407,
    "lon": -73.922982
  },
  {
    "id": "BX_100796",
    "name": "\"WEST FORDHAM RD/UNIVERSITY AV\"",
    "lat": 40.862703,
    "lon": -73.904256
  },
  {
    "id": "BX_100797",
    "name": "\"EAST FORDHAM RD/WALTON AV\"",
    "lat": 40.862451,
    "lon": -73.900497
  },
  {
    "id": "BX_100798",
    "name": "\"EAST FORDHAM RD/GRAND CONCOURSE\"",
    "lat": 40.862394,
    "lon": -73.897565
  },
  {
    "id": "BX_100799",
    "name": "\"EAST FORDHAM RD/VALENTINE AV\"",
    "lat": 40.862236,
    "lon": -73.89601
  },
  {
    "id": "BX_100807",
    "name": "\"EAST FORDHAM RD/SOUTHERN BLVD\"",
    "lat": 40.856465,
    "lon": -73.880146
  },
  {
    "id": "BX_100808",
    "name": "\"PELHAM PKWY/WHITE PLAINS RD\"",
    "lat": 40.856715,
    "lon": -73.867834
  },
  {
    "id": "BX_100809",
    "name": "\"PELHAM PKWY/MULINER AV\"",
    "lat": 40.856878,
    "lon": -73.861761
  },
  {
    "id": "BX_100811",
    "name": "\"PELHAM PKWY/WILLIAMSBRIDGE RD\"",
    "lat": 40.857026,
    "lon": -73.85623
  },
  {
    "id": "BX_100820",
    "name": "\"CITY ISLAND AV/KILROE ST\"",
    "lat": 40.854659,
    "lon": -73.791003
  },
  {
    "id": "BX_100822",
    "name": "\"CITY ISLAND AV/BEACH ST\"",
    "lat": 40.851731,
    "lon": -73.78899
  },
  {
    "id": "BX_100823",
    "name": "\"CITY ISLAND AV/DITMARS ST\"",
    "lat": 40.849464,
    "lon": -73.787397
  },
  {
    "id": "BX_100824",
    "name": "\"CITY ISLAND AV/FORDHAM ST\"",
    "lat": 40.846915,
    "lon": -73.786479
  },
  {
    "id": "BX_100826",
    "name": "\"CITY ISLAND AV/WINTERS ST\"",
    "lat": 40.843817,
    "lon": -73.785314
  },
  {
    "id": "BX_100827",
    "name": "\"CITY ISLAND AV/PELL PL\"",
    "lat": 40.842177,
    "lon": -73.784701
  },
  {
    "id": "BX_100828",
    "name": "\"CITY ISLAND AV/PILOT ST\"",
    "lat": 40.841279,
    "lon": -73.784368
  },
  {
    "id": "BX_100829",
    "name": "\"CITY ISLAND AV/ROCHELLE ST\"",
    "lat": 40.838969,
    "lon": -73.783486
  },
  {
    "id": "BX_100840",
    "name": "\"PELHAM PKWY/WILLIAMSBRIDGE RD\"",
    "lat": 40.857548,
    "lon": -73.856642
  },
  {
    "id": "BX_100842",
    "name": "\"PELHAM PKWY/WHITE PLAINS RD\"",
    "lat": 40.857292,
    "lon": -73.867321
  },
  {
    "id": "BX_100843",
    "name": "\"EAST FORDHAM RD/SOUTHERN BLVD\"",
    "lat": 40.85731,
    "lon": -73.880492
  },
  {
    "id": "BX_100849",
    "name": "\"EAST FORDHAM RD/VALENTINE AV\"",
    "lat": 40.862346,
    "lon": -73.896016
  },
  {
    "id": "BX_100850",
    "name": "\"E FORDHAM RD/E 190 ST\"",
    "lat": 40.862426,
    "lon": -73.897854
  },
  {
    "id": "BX_100851",
    "name": "\"E FORDHAM RD/JEROME AV\"",
    "lat": 40.862689,
    "lon": -73.900802
  },
  {
    "id": "BX_100854",
    "name": "\"W FORDHAM RD/SEDGWICK AV\"",
    "lat": 40.862782,
    "lon": -73.908655
  },
  {
    "id": "BX_100860",
    "name": "\"CITY ISLAND AV/ROCHELLE ST\"",
    "lat": 40.83906,
    "lon": -73.783366
  },
  {
    "id": "BX_100861",
    "name": "\"CITY ISLAND AV/PILOT ST\"",
    "lat": 40.841152,
    "lon": -73.784108
  },
  {
    "id": "BX_100862",
    "name": "\"CITY ISLAND AV/PELL PL\"",
    "lat": 40.842847,
    "lon": -73.784746
  },
  {
    "id": "BX_100863",
    "name": "\"CITY ISLAND AV/WINTERS ST\"",
    "lat": 40.84408,
    "lon": -73.785197
  },
  {
    "id": "BX_100865",
    "name": "\"CITY ISLAND AV/FORDHAM ST\"",
    "lat": 40.84753,
    "lon": -73.786495
  },
  {
    "id": "BX_100866",
    "name": "\"CITY ISLAND AV/DITMARS ST\"",
    "lat": 40.84964,
    "lon": -73.787283
  },
  {
    "id": "BX_100867",
    "name": "\"CITY ISLAND AV/BEACH ST\"",
    "lat": 40.852272,
    "lon": -73.78914
  },
  {
    "id": "BX_100869",
    "name": "\"CITY ISLAND AV/KILROE ST\"",
    "lat": 40.854515,
    "lon": -73.790806
  },
  {
    "id": "BX_100870",
    "name": "\"CITY ISLAND RD/CITY ISLAND CIRCLE\"",
    "lat": 40.860528,
    "lon": -73.801335
  },
  {
    "id": "BX_100876",
    "name": "\"ELTON AV/E 161 ST\"",
    "lat": 40.823758,
    "lon": -73.911987
  },
  {
    "id": "BX_100883",
    "name": "\"JEROME AV/W 161 ST\"",
    "lat": 40.829981,
    "lon": -73.930187
  },
  {
    "id": "BX_100884",
    "name": "\"OGDEN AV/W 162 ST\"",
    "lat": 40.831913,
    "lon": -73.929871
  },
  {
    "id": "BX_100893",
    "name": "\"OGDEN AV/W 164 ST\"",
    "lat": 40.833175,
    "lon": -73.929151
  },
  {
    "id": "BX_100895",
    "name": "\"OGDEN AV/W 166 ST\"",
    "lat": 40.835862,
    "lon": -73.927637
  },
  {
    "id": "BX_100897",
    "name": "\"OGDEN AV/W 168 ST\"",
    "lat": 40.838786,
    "lon": -73.925935
  },
  {
    "id": "BX_100922",
    "name": "\"OGDEN AV/W 168 ST\"",
    "lat": 40.838216,
    "lon": -73.926456
  },
  {
    "id": "BX_100924",
    "name": "\"OGDEN AV/W 166 ST\"",
    "lat": 40.835332,
    "lon": -73.92814
  },
  {
    "id": "BX_100926",
    "name": "\"OGDEN AV/W 164 ST\"",
    "lat": 40.832641,
    "lon": -73.929628
  },
  {
    "id": "BX_100927",
    "name": "\"OGDEN AV/W 162 ST\"",
    "lat": 40.831732,
    "lon": -73.930142
  },
  {
    "id": "BX_100946",
    "name": "\"WESTCHESTER AV/MIDDLETOWN RD\"",
    "lat": 40.843758,
    "lon": -73.836358
  },
  {
    "id": "BX_100947",
    "name": "\"WESTCHESTER AV/ROBERTS AV\"",
    "lat": 40.84543,
    "lon": -73.83423
  },
  {
    "id": "BX_100948",
    "name": "\"WESTCHESTER AV/CROSBY AV\"",
    "lat": 40.846829,
    "lon": -73.832468
  },
  {
    "id": "BX_100949",
    "name": "\"WESTCHESTER AV/MAHAN AV\"",
    "lat": 40.849025,
    "lon": -73.830544
  },
  {
    "id": "BX_100950",
    "name": "\"WESTCHESTER AV/WILKINSON AV\"",
    "lat": 40.851708,
    "lon": -73.829539
  },
  {
    "id": "BX_100956",
    "name": "\"COUNTRY CLUB RD/KEARNEY AV\"",
    "lat": 40.842489,
    "lon": -73.824756
  },
  {
    "id": "BX_100960",
    "name": "\"CAMPBELL DR/STADIUM AV\"",
    "lat": 40.83791,
    "lon": -73.818838
  },
  {
    "id": "BX_100961",
    "name": "\"CAMPBELL DR/AGAR PL\"",
    "lat": 40.839129,
    "lon": -73.817273
  },
  {
    "id": "BX_100962",
    "name": "\"CAMPBELL DR/COUNTRY CLUB RD\"",
    "lat": 40.841062,
    "lon": -73.817857
  },
  {
    "id": "BX_100965",
    "name": "\"RADIO DR/LUCERNE ST\"",
    "lat": 40.843131,
    "lon": -73.817143
  },
  {
    "id": "BX_100966",
    "name": "\"RADIO DR/GRISWOLD AV\"",
    "lat": 40.843952,
    "lon": -73.819378
  },
  {
    "id": "BX_100967",
    "name": "\"RESEARCH AV/AMPERE AV\"",
    "lat": 40.846067,
    "lon": -73.819252
  },